,business_id,name,address,postal_code,latitude,longitude,stars,review_count,is_open,categories,wifi,parking,creditcard,reserve,groups,attributes.RestaurantsPriceRange2,alcohol,takeout,attire,delivery
13,ufCxltuh56FF4-ZFZ6cVhg,Sister Honey's,247 E Michigan St,32806,28.5132647,-81.3747072,4.5,135,1,"Restaurants, American (New), Bakeries, Desserts, Food, Cupcakes",,"{'garage': False, 'street': False, 'validated': False, 'lot': True, 'valet': False}",True,,,1.0,,True,,False
16,GfWJ19Js7wX9rwaHQ7KbGw,Everything POP Shopping & Dining,1050 Century Dr,32830,28.3504984,-81.542819,3.0,7,1,"Restaurants, American (New), Food Court, Flowers & Gifts, Hotels & Travel, Gift Shops, Resorts, Shopping",u'free',"{'garage': False, 'street': False, 'validated': False, 'lot': False, 'valet': False}",True,False,True,2.0,,None,u'casual',None
22,ynTjh_FdhbG5hY69HsEoaA,Cascade Restaurant,"Hyatt Regency Grand Cypress, 1 Grand Cypress Blvd",32836,28.3819454,-81.510327,3.5,18,0,"Hotels, American (Traditional), Restaurants, Event Planning & Services, Hotels & Travel",'free',"{'garage': False, 'street': False, 'validated': True, 'lot': True, 'valet': True}",True,True,True,2.0,'full_bar',True,u'casual',False
51,w4qVflIAbdklzG3mnKmQsg,Magical Pizza Express,"3262 Vineland Rd, Ste 106",32811,28.5205,-81.44395,1.0,8,1,"Italian, Restaurants",,,,,,1.0,u'none',,u'casual',
63,qbZJh9lR0gh4Wca96NQv9g,Chuck E. Cheese,7456 W Colonial Dr,32818,28.551335,-81.483167,2.0,15,1,"Pizza, Event Planning & Services, Arcades, Party & Event Planning, Restaurants, Active Life, Arts & Entertainment, Kids Activities, Indoor Playcentre",'free',"{'garage': False, 'street': False, 'validated': False, 'lot': True, 'valet': False}",True,True,True,1.0,'none',True,'casual',True
88,EGZ0fhB9k0ZlI5sHda4vFw,Andy's Frozen Custard,5381 International Dr,32819,28.4632778,-81.4511805,4.5,36,0,"Food, Ice Cream & Frozen Yogurt, Restaurants, Breakfast & Brunch, Desserts",u'no',"{'garage': False, 'street': False, 'validated': False, 'lot': True, 'valet': False}",True,,,1.0,,True,,
220,y030N-DD6G7lfWHO4A6ezw,Saltgrass Steak House,8850 Vineland Ave,32821,28.3732694002,-81.5030797147,3.5,162,1,"Steakhouses, Restaurants, American (Traditional), Seafood",u'free',"{'garage': False, 'street': None, 'validated': False, 'lot': True, 'valet': False}",True,True,True,2.0,u'full_bar',True,u'casual',True
310,Xz6aqENKlT4FU-ZBvrf_ow,Bugambilias,747 W Lancaster,32809,28.464982,-81.390952,4.5,43,1,"Restaurants, Mexican",'no',"{'garage': False, 'street': False, 'validated': False, 'lot': True, 'valet': False}",True,True,True,1.0,'none',True,'casual',True
369,mw_qxZJraNu7Q6u0GkcMew,Chatham's Place,7575 Dr Phillips Blvd,32819,28.4518821484,-81.487382886,4.5,157,1,"American (New), Bars, Restaurants, Wine Bars, Nightlife",u'no',"{'garage': False, 'street': False, 'validated': False, 'lot': True, 'valet': False}",True,True,True,4.0,u'full_bar',True,u'dressy',True
393,n-_p1jwGCbZT9YaTbugsdw,Vivi bubble Tea,"1111 E Colonial Dr, Ste 1111",32803,28.5534641199,-81.3649773955,4.0,197,1,"Coffee & Tea, Food, Hot Dogs, Restaurants, Bubble Tea",,"{'garage': False, 'street': True, 'validated': False, 'lot': True, 'valet': False}",True,True,,1.0,,True,,
405,BICRl8FOudjjloh1kc9Glw,Wendy's,4051 Millenia Blvd,32839,28.4913358,-81.4287783,4.0,25,1,"Restaurants, Burgers, Fast Food",'free',"{'garage': False, 'street': None, 'validated': False, 'lot': True, 'valet': False}",True,False,True,1.0,u'none',True,u'casual',True
436,xqxRL30UDtEP3v1E_x-SlA,Froggers Grill & Bar Southwest,6700 Conroy Windermere Rd,32835,28.4930274,-81.4735774,3.5,7,0,"Restaurants, American (Traditional)",,"{'garage': False, 'street': False, 'validated': False, 'lot': False, 'valet': False}",,,,2.0,u'full_bar',,,
497,ynM2sHgvOG4DBJNDf1GKUQ,Publix Super Markets,3400 Avalon Park East Blvd,32828,28.5142749,-81.1543345,3.5,35,1,"Drugstores, Delis, Restaurants, Shopping, Grocery, Food",'free',"{'garage': False, 'street': None, 'validated': False, 'lot': True, 'valet': False}",True,False,True,2.0,,True,'casual',False
532,DtOUYfEGFJ8y7YC5VnM9UA,The Clubhouse,100 E Pine St,32801,28.5412869,-81.3768161,4.0,7,0,"American (Traditional), Sports Bars, Restaurants, Bars, Nightlife",,"{'garage': True, 'street': False, 'validated': False, 'lot': False, 'valet': False}",True,False,True,1.0,'full_bar',True,u'casual',True
703,zQRbAOceJyC7xVBBRny2HQ,Bites & Bubbles,912 N Mills Ave,32803,28.5572082,-81.36474,4.5,105,1,"Wine Bars, Restaurants, Bars, Nightlife, Specialty Food, Desserts, Food, Tapas Bars",u'free',"{'garage': False, 'street': True, 'validated': False, 'lot': False, 'valet': False}",True,True,False,2.0,'beer_and_wine',True,,True
739,Wo7xNKWlq3i5q20VkBb6IQ,Mejana Mediterranean,"12001 Avalon Lake Dr, Ste A",32828,28.5105029935,-81.1561918371,4.5,69,1,"Restaurants, Mediterranean",u'free',"{'garage': False, 'street': False, 'validated': False, 'lot': False, 'valet': False}",True,True,,,,True,,True
763,rIdojqgqK1IcxYAyJhsLLg,Muse 24h Caffee,14100 Bonnet Creek Resort Ln,32821,28.355841,-81.534603,4.0,5,1,"Restaurants, Cafes",u'free',,,,,,,,,
862,ha4EZP8LSROUcrZhQWeXQQ,Aroma Italian Café & Wine Bar,712 E Washington St,32801,28.543402,-81.367959,4.0,25,0,"Coffee & Tea, Food, Bars, Nightlife, Italian, Arts & Entertainment, Restaurants, Music Venues, Wine Bars",u'no',"{'garage': False, 'street': True, 'validated': False, 'lot': False, 'valet': False}",True,False,True,2.0,u'beer_and_wine',True,u'casual',False
873,ob2Bplta28zhLbLPoaSL3Q,Ponderosa Steakhouse,8510 International Dr,32819,28.4414897,-81.4712016,3.0,38,0,"Buffets, Restaurants, American (New), Steakhouses",u'free',"{'garage': False, 'street': False, 'validated': False, 'lot': True, 'valet': False}",True,False,True,2.0,u'beer_and_wine',False,'casual',False
966,LMBo7Dv-5jSTrUgiDkjE9Q,Crispers,557 N Alafaya Trail,32828,28.5553662396,-81.2026464148,4.0,86,0,"Restaurants, Salad, Sandwiches, Soup",u'free',"{'garage': False, 'street': False, 'validated': False, 'lot': True, 'valet': False}",True,False,True,1.0,u'none',True,u'casual',True
1003,SrykgwUBIaqNwqvu7JKMqQ,House of Pizza,"14650 Gatorland Dr, Ste 1",32837,28.3533325,-81.4051029,3.5,47,0,"Pizza, Italian, Salad, Restaurants",'free',"{'garage': False, 'street': False, 'validated': False, 'lot': True, 'valet': False}",True,False,True,1.0,u'none',True,u'casual',True
1005,SALa3MhzFBKVGkzphbYrqQ,Sharon's Place,4905 S Orange Ave,32806,28.4912556,-81.3731596,4.0,16,0,"Restaurants, Breakfast & Brunch, Sandwiches, American (Traditional), Diners",'no',"{'garage': False, 'street': False, 'validated': False, 'lot': False, 'valet': False}",True,False,True,1.0,u'none',True,'casual',False
1008,3JrdnGYWUzUzepplmi7HlA,Sweet Mama's Restaurant,"10743 Narcoossee Rd, Ste A3",32832,28.411547,-81.240481,4.0,341,1,"American (New), Diners, American (Traditional), Breakfast & Brunch, Restaurants, Comfort Food, Desserts, Food, Burgers",u'free',"{'garage': False, 'street': False, 'validated': False, 'lot': True, 'valet': False}",True,False,True,2.0,u'beer_and_wine',True,u'casual',True
1044,Mw9Locfp_Qc_T_QDyLR3cQ,Roque Pub,3076 Curry Ford Rd,32806,28.5234748,-81.3440402,4.5,143,1,"Restaurants, American (New), Sandwiches, Bars, Food, Nightlife, Event Planning & Services, Beer, Wine & Spirits, Venues & Event Spaces, Pubs",u'free',"{'garage': False, 'street': False, 'validated': False, 'lot': True, 'valet': False}",True,False,True,2.0,u'beer_and_wine',True,'casual',True
1106,d3uHwiajWXVApH65sGKRiw,Chinatown,4200 Conroy Rd,32839,28.485254,-81.432187,2.5,14,1,"Chinese, Restaurants",u'no',,True,False,True,1.0,,True,'casual',False
1122,DM_Ge3Feh-4xnIrHIDg4uw,The Bistro Restaurant and Bar,730 N Magnolia Ave,32803,28.5542126431,-81.3775464778,4.5,7,1,"Food, American (New), Internet Cafes, Bars, Restaurants, Nightlife, Breakfast & Brunch, Coffee & Tea, Cocktail Bars",u'free',,True,False,,,u'full_bar',True,,False
1142,08xNWFnK7VoMjjQSEqd2Qw,Ming Dragon Express,6139 Westwood Blvd,32821,28.420153,-81.461639,4.0,66,1,"Japanese, Sushi Bars, Chinese, Restaurants",u'free',"{'garage': False, 'street': False, 'validated': False, 'lot': False, 'valet': False}",True,False,True,2.0,'none',True,u'casual',True
1194,7rn7i2hdfiGX1lWobZJXBQ,Red Lobster,12557 State Road 535,32836,28.381024,-81.502994,3.5,95,1,"Seafood, Restaurants, American (Traditional)",u'free',"{'garage': True, 'street': True, 'validated': True, 'lot': True, 'valet': True}",True,True,True,2.0,u'full_bar',True,u'casual',True
1283,3SUhbtzb49gJX9jvitGSFQ,Starring Rolls Cafe,"351 S Studio Dr, 351 S Studio Dr",32830,28.3577687922,-81.5600863022,3.5,47,0,"Sandwiches, Cafes, Restaurants",'free',,True,False,True,2.0,u'none',True,u'casual',False
1295,mLSsh3ufAvCsZjY9KoAbdQ,Maddey's Craft & Cru,116 W Church St,32801,28.5400531637,-81.3811068982,4.5,19,0,"Restaurants, American (New), Pizza",,,True,True,True,3.0,,False,u'casual',False
1340,1eyv_Nm2KHOmGGb7je21Ug,Fuzzy's Taco Shop,12241 East Colonial Dr,32826,28.5665610177,-81.1952380621,3.5,170,1,"Sandwiches, Restaurants, Tex-Mex, Breakfast & Brunch, Mexican",u'free',"{'garage': False, 'street': False, 'validated': False, 'lot': True, 'valet': False}",True,False,True,1.0,u'full_bar',True,'casual',False
1345,QdzRS1s0tSltIokm2xV-kA,Border Grill Fresh-Mex,5695-A Vineland Rd,32819,28.483564,-81.456769,4.5,1203,1,"Latin American, Mexican, Restaurants, Tex-Mex",u'no',"{'garage': False, 'street': False, 'validated': False, 'lot': True, 'valet': False}",True,False,False,1.0,u'beer_and_wine',True,u'casual',True
1347,EUe1bX5VtvlPn1YvFk3lzQ,Mangino's Bistro,1950 W Magnolia Palm Dr,32830,28.399371,-81.547904,3.5,34,1,"Restaurants, Italian",'no',"{'garage': False, 'street': False, 'validated': False, 'lot': False, 'valet': False}",True,False,True,1.0,'beer_and_wine',True,'casual',False
1380,Lg7aBaURc2MiAhM4ZJldvQ,Westgate Lakes Resort and Spa,9500 Turkey Lake Rd,32819,28.4277525796,-81.4751889307,2.0,616,1,"Food, Hotels & Travel, Restaurants, Resorts, Barbeque, Smokehouse, Event Planning & Services, Hotels, Beauty & Spas, Vacation Rentals, Day Spas",u'free',,True,,False,3.0,'full_bar',,,False
1487,I7atR1yTJMOgSoZLXLtCWA,Golden Dynasty,2116 Whisper Lakes Blvd,32837,28.396766,-81.405382,3.0,102,0,"Pakistani, Chinese, Event Planning & Services, Restaurants, Indian, Halal, Caterers",u'no',"{'garage': False, 'street': False, 'validated': False, 'lot': True, 'valet': False}",True,True,True,2.0,u'none',True,u'casual',True
1506,p7TMPVrhCxG2Bi4HzZbqcQ,Churrascaria Brazilian Steakhouse,1000 Universal Studios Plz,32819,28.4772489,-81.4735662,3.5,12,0,"Restaurants, Brazilian",,"{'garage': False, 'street': False, 'validated': False, 'lot': False, 'valet': False}",True,,True,3.0,u'full_bar',False,u'casual',False
1513,3cLBtLFiH8IRdlEy9S8RiQ,Sofrito Latin Cafe,8607 Palm Pkwy,32836,28.3861008,-81.5041923,4.5,1609,1,"Mexican, Cafes, Latin American, Breakfast & Brunch, Coffee & Tea, Sandwiches, Caribbean, Puerto Rican, Gluten-Free, Food, Restaurants, Venezuelan",u'free',"{'garage': False, 'street': False, 'validated': False, 'lot': True, 'valet': False}",True,False,True,2.0,u'full_bar',True,'casual',True
1598,4HiYQ84s7Mqy7iY8vp9_xA,Tortas El Rey,6151 S Orange Blossom Trl,32809,28.4673631,-81.3959895,4.5,218,1,"Latin American, Mexican, Tacos, Restaurants, Sandwiches",u'no',"{'garage': False, 'street': False, 'validated': False, 'lot': True, 'valet': False}",True,False,True,1.0,u'none',True,u'casual',True
1611,0FCJQvT_yPdSXZ_xvj-SeA,McDonald's,3005 W Colonial Dr,32808,28.55331,-81.415045,2.0,14,1,"Restaurants, Fast Food, Burgers, Food, Coffee & Tea",'free',"{'garage': False, 'street': False, 'validated': False, 'lot': False, 'valet': False}",True,False,False,1.0,u'none',True,'casual',True
1688,12CqiOV1GVOO_OknEgUJ9A,Cedar Halal Food & Grill,12100 E Colonial Dr,32826,28.56554,-81.2017467,4.5,91,1,"Mediterranean, Halal, Delis, Restaurants",'no',"{'garage': False, 'street': False, 'validated': False, 'lot': True, 'valet': False}",True,True,True,1.0,u'none',True,u'casual',True
1723,gKKcXhKh3fid3Ep7qeT7GQ,Makis Place Lake Nona,"9680 Narcoossee Rd, Ste 102",32827,28.4260959532,-81.2534811859,4.0,28,0,"Fish & Chips, Restaurants, Japanese, Sushi Bars",u'free',,True,True,True,2.0,'beer_and_wine',True,'casual',False
1739,IpkEeLd4ZYSQAM-GlTA3cA,Neopolitan Pizza,7223 International Dr,32819,28.455434,-81.470481,4.0,71,1,"Pizza, Italian, Restaurants",u'free',"{'garage': False, 'street': False, 'validated': False, 'lot': True, 'valet': False}",True,False,True,1.0,u'beer_and_wine',True,,True
1799,HUEZLPIM64cDZnfHE1H3AA,Pizza Hut,9100 International Dr,32819,28.4327384,-81.4721426,3.5,59,1,"Chicken Wings, Italian, Restaurants, Pizza",'free',"{'garage': False, 'street': False, 'validated': False, 'lot': True, 'valet': False}",True,False,True,1.0,'none',True,u'casual',True
1829,DdKSrl5LHtgXJ_-imoW4xg,Gatorville Poolside Bar & Grill,8001 International Dr,32819,28.4483104,-81.4684068,3.0,17,1,"Bars, Nightlife, American (New), Restaurants",'free',"{'garage': False, 'street': False, 'validated': False, 'lot': True, 'valet': False}",True,True,True,2.0,u'full_bar',True,'casual',False
1838,DeqeZjU9NgybUuILO94XVQ,Mark's Jamaican Bar & Grill,10173 University Blvd,32817,28.5982108967,-81.2424430624,4.5,173,1,"Caribbean, Nightlife, Sports Bars, Beer Bar, Bars, Restaurants",u'free',"{'garage': False, 'street': False, 'validated': False, 'lot': True, 'valet': False}",True,True,True,2.0,u'beer_and_wine',True,u'casual',None
1942,i90jeBl_lLHzzuDLsxWJEA,Luke's Kitchen and Bar,640 S Orlando Ave,32751,28.6225778,-81.3636526,4.0,335,1,"Nightlife, Seafood, Bars, American (Traditional), American (New), Restaurants, Burgers",'free',"{'garage': False, 'street': False, 'validated': False, 'lot': True, 'valet': True}",True,True,True,2.0,u'full_bar',True,'casual',False
1971,RdC6xqYSLcU2850O___4YQ,Sushi Yummy,8001 S Orange Blossom Trl,32809,28.446003,-81.395645,3.0,35,1,"Restaurants, Conveyor Belt Sushi, Beer, Wine & Spirits, Sushi Bars, Food, Japanese",'no',"{'garage': None, 'street': None, 'validated': None, 'lot': False, 'valet': False}",True,True,False,1.0,,True,,True
2083,WRjqCn4OqSpvsqvpUeoKIA,Fuddruckers,12535 Apopka-Vineland Rd,32808,28.383166,-81.502486,3.5,214,1,"Burgers, American (Traditional), Restaurants",u'free',"{'garage': False, 'street': False, 'validated': False, 'lot': True, 'valet': False}",True,False,True,2.0,u'beer_and_wine',True,u'casual',True
2086,uN9CD8lVN6dBmfUOfEKvBA,Sideshow,15 N Orange Ave,32801,28.5424196,-81.3788244,3.5,78,1,"Nightlife, Music Venues, American (New), Beer, Wine & Spirits, Bars, Restaurants, Sports Bars, Arts & Entertainment, Food",u'free',"{'garage': True, 'street': True, 'validated': False, 'lot': False, 'valet': False}",True,True,True,1.0,u'full_bar',True,'casual',False
2179,r6wu3WxmcIUMu4v1BhnBHQ,LaSpada's,1010 Lee Rd,32810,28.6050577604,-81.3963317871,4.0,221,1,"Burgers, American (New), Restaurants, Cheesesteaks, Sandwiches",u'no',"{'garage': False, 'street': False, 'validated': False, 'lot': None, 'valet': False}",True,False,True,1.0,u'none',True,u'casual',True
2201,DJjeZa1e6t3vrUr-biIWvQ,Mr K's Chinese Cuisine & Sushi,10395 Narcoossee Rd,32832,28.4162297,-81.2423589,4.0,132,1,"Sushi Bars, Chinese, Restaurants",u'no',"{'garage': False, 'street': False, 'validated': False, 'lot': False, 'valet': False}",True,False,True,2.0,u'beer_and_wine',True,u'casual',True
2215,MVqv-Wgn772O5fqvgZy83A,Galeria,4979 New Broad St,32814,28.5690652,-81.3262027,4.0,54,1,"Seafood, Restaurants, Steakhouses, American (New), Bars, Nightlife, Wine Bars",,"{'garage': False, 'street': True, 'validated': False, 'lot': False, 'valet': True}",True,True,True,,u'full_bar',,,
2230,SHtFiXm6Z4874JplFsJVAw,Middle East Market & Deli,8100 S Orange Blossom Trl,32809,28.4479324,-81.4024496,3.5,63,0,"Grocery, Greek, International Grocery, Middle Eastern, Delis, Food, Restaurants, Beverage Store, Mediterranean",'no',"{'garage': False, 'street': False, 'validated': False, 'lot': True, 'valet': False}",True,True,True,1.0,u'none',True,'casual',False
2231,vC3J4WfPJRLi3JqePLcFjA,Akasaka,7786 W Sand Lake Rd,32819,28.448672,-81.48961,3.5,314,1,"Japanese, Sushi Bars, Restaurants",'free',"{'garage': False, 'street': False, 'validated': False, 'lot': True, 'valet': False}",True,True,True,2.0,u'full_bar',True,'casual',True
2285,TwDFqBELCEu1B8fpIFa3nQ,Kobe Japanese Steakhouse - Lake Buena Vista,8460 Palm Pkwy,32836,28.3853707,-81.4999072,4.0,380,1,"Japanese, Steakhouses, Restaurants, Sushi Bars, Bars, Nightlife, Wine Bars",u'no',"{'garage': False, 'street': False, 'validated': False, 'lot': True, 'valet': False}",True,True,True,2.0,u'full_bar',True,'casual',True
2366,-sa6gC7KSvIBVCKkzz_tpA,Marriott's Grande Pines Golf Club,6351 International Golf Club Rd,32821,28.4004902,-81.4629007,3.5,12,0,"Active Life, Restaurants, Golf, American (Traditional)",'free',"{'garage': False, 'street': False, 'validated': False, 'lot': True, 'valet': False}",True,True,True,3.0,u'full_bar',False,'casual',False
2410,C4zr280r3ZvSpHrlNvzIyg,Pammie's Sammies,7000 Dr Phillips Blvd,32819,28.4602268,-81.4923411,4.0,59,1,"Wine Bars, Caterers, Event Planning & Services, Restaurants, Bars, Nightlife, Food, Sandwiches, Desserts, Salad",u'free',"{'garage': False, 'street': False, 'validated': False, 'lot': True, 'valet': False}",True,False,True,1.0,u'beer_and_wine',True,u'casual',True
2429,OTqUbo5LfSJXULw742jPJw,Olde Dixie Fried Chicken,5925 S Orange Ave,32809,28.4723866,-81.3687767,3.5,55,0,"Restaurants, American (Traditional)",'no',"{'garage': False, 'street': False, 'validated': False, 'lot': True, 'valet': False}",True,False,True,1.0,'none',True,u'casual',False
2494,Gj18ANQXr8x9H8IVTKKX6Q,Estrella Latina,7371 Lake Underhill Rd,32822,28.5396008,-81.2862606,3.0,8,1,"Buffets, Latin American, Restaurants",u'free',"{'garage': False, 'street': False, 'validated': False, 'lot': False, 'valet': False}",True,False,True,1.0,u'none',True,u'casual',False
2654,HiWtZgPBWPsbM43cSSeshw,Zoes Kitchen,"7341 W Sand Lake Rd, Ste 1081",32819,28.4503891,-81.4812757,4.0,136,1,"Mediterranean, Kebab, Middle Eastern, Restaurants, Sandwiches, Greek",u'free',"{'garage': None, 'street': False, 'validated': False, 'lot': False, 'valet': False}",True,False,True,2.0,'none',True,'casual',True
2659,U9lrX8Nviajz-74dF6zL7g,SeaWorld Orlando,7007 SeaWorld Dr,32821,28.4117475505,-81.4637947083,3.5,1082,1,"Amusement Parks, Active Life, Performing Arts, Restaurants, Buffets, Arts & Entertainment, Aquariums",'no',"{'garage': False, 'street': False, 'validated': False, 'lot': True, 'valet': False}",True,True,True,4.0,'full_bar',False,'casual',False
2744,3GkmRnZLLbxgKpY5sS48GQ,Pearl's Chinese Restaurant,5438 Central Florida Pkwy,32821,28.4068798,-81.449521,3.5,8,1,"Chinese, Restaurants",,"{'garage': False, 'street': False, 'validated': False, 'lot': False, 'valet': False}",True,False,,2.0,u'beer_and_wine',True,'casual',True
2748,upKSwz63uKXB7TJ3DHeEOQ,Southern Smoked Fish & Ribs,705 W Colonial Dr,32804,28.5531765,-81.3891853,4.5,18,0,"Restaurants, Barbeque",'no',"{'garage': False, 'street': False, 'validated': False, 'lot': False, 'valet': False}",True,False,True,1.0,,True,'casual',True
2800,uquyiSrVAKTbMDIdocKUgA,Subway,7413 E Colonial Dr,32807,28.5687682,-81.2870456,4.0,6,1,"Restaurants, Fast Food, Sandwiches",'no',"{'garage': False, 'street': False, 'validated': False, 'lot': False, 'valet': False}",True,False,False,1.0,,True,u'casual',True
2844,L0DY_tvx7chQerVmeIJcWQ,New China King,5709 Edgewater Dr,32810,28.60998,-81.413482,3.0,21,1,"Restaurants, Chinese",'no',"{'garage': False, 'street': False, 'validated': False, 'lot': False, 'valet': False}",True,False,False,1.0,,True,u'casual',True
2932,Qydynzc1ApxsSkVNEgPs9A,Miller's Ale House - Orlando,8963 International Dr,32819,28.4348799165,-81.4716329575,3.5,535,1,"Burgers, Sports Bars, Restaurants, Nightlife, Bars, Seafood, American (Traditional), American (New)",u'free',"{'garage': False, 'street': False, 'validated': False, 'lot': True, 'valet': False}",True,False,True,2.0,u'full_bar',True,u'casual',True
2938,4PxNdgzNgSWLnATvRSS_DQ,Mel's Drive-In,"6000 Universal Blvd, Universal Studios Florida",32819,28.4764135472,-81.46782325,2.5,134,1,"Active Life, Diners, Amusement Parks, Restaurants",'no',"{'garage': False, 'street': False, 'validated': False, 'lot': False, 'valet': False}",True,False,True,2.0,u'none',True,u'casual',False
3024,LrE5Rqg4pBRwgDfk3toOAw,Numero Uno Restaurant,2499 S Orange Ave,32806,28.514151,-81.3760513,3.5,143,1,"Cuban, Restaurants",u'paid',"{'garage': False, 'street': False, 'validated': False, 'lot': True, 'valet': False}",True,True,True,2.0,u'beer_and_wine',True,u'casual',True
3049,oxIkw2xgu9MkhzKntav0cQ,Venezuelan Burger,6316 International Dr,32819,28.461401,-81.467493,4.0,91,0,"Restaurants, Latin American, Food, Venezuelan, Food Trucks, Burgers",'no',"{'garage': False, 'street': False, 'validated': False, 'lot': False, 'valet': False}",True,True,False,2.0,u'none',True,'casual',True
3156,n3i_LN8bkjCUlCrX9oMeaA,Tropical Sensations,4973 International Dr,32819,28.476315,-81.450043,3.0,5,1,"Restaurants, Food Court, Sandwiches",,,True,False,True,1.0,,False,'casual',False
3168,WSbWWJxjyCK62H51yxNn0w,Fork In The Road,,,28.5383355,-81.3792365,3.5,20,0,"Food Trucks, Restaurants, Street Vendors, Sandwiches, Food, Burgers",,"{'garage': False, 'street': False, 'validated': False, 'lot': False, 'valet': False}",True,,,2.0,,,,
3172,NA7X-SiCZVO2INYdz2XX8Q,Sinha Brazilian Steak House,13586 Village Park Dr,32837,28.3683674,-81.4270686,4.0,176,0,"Brazilian, Steakhouses, Restaurants",u'free',"{'garage': False, 'street': True, 'validated': False, 'lot': False, 'valet': False}",True,True,True,2.0,u'beer_and_wine',True,u'casual',True
3235,MPgXswKyNopTNNhzOf5Gng,Wingstop,"2911 E Colonial Drive, Ste 3",32803,28.5535588,-81.3471304,3.0,33,1,"Chicken Wings, Restaurants",u'no',"{'garage': False, 'street': False, 'validated': False, 'lot': False, 'valet': False}",True,,True,1.0,,True,,True
3256,cyMSilW0b5ZrbWeqSgTMCA,Bife De Chorizo,"1700 W Sand Lake Rd, Ste D106",32809,28.4494073499,-81.4017132525,4.5,6,0,"Sandwiches, Restaurants, Argentine, Latin American",u'no',,True,False,False,2.0,u'beer_and_wine',True,,True
3274,1DqH1jYITwUvlVut_YBApg,Chipotle Mexican Grill,2850 S Kirkman Rd,32811,28.5120753,-81.459758,3.0,81,1,"Fast Food, Mexican, Restaurants, Vegan",'no',"{'garage': False, 'street': False, 'validated': False, 'lot': None, 'valet': False}",True,False,True,1.0,'beer_and_wine',True,'casual',True
3292,Co5fyfHUzACP9lOTWEArjA,Big Brunos Bites,745 Bennett Rd,32803,28.5553661,-81.3333139,4.5,19,0,"Food Stands, Restaurants",u'no',"{'garage': False, 'street': False, 'validated': False, 'lot': True, 'valet': False}",True,False,True,1.0,u'none',True,u'casual',False
3298,I9gNfcHOlkwUnd5Q00TbuA,Dairy Queen Grill & Chill,14532 E Colonial Dr,32826,28.5647449242,-81.1677485704,3.0,21,1,"Fast Food, Restaurants, Food, Burgers, Ice Cream & Frozen Yogurt",u'free',"{'garage': False, 'street': False, 'validated': False, 'lot': True, 'valet': False}",True,False,True,1.0,,True,'casual',True
3331,9CUdYtLyfpYeF5S3HbgysA,Abhiruchi Indian Cuisine,6215 S Orange Blossom Trl,32809,28.4668047,-81.3962804,3.0,24,0,"Food, Indian, Restaurants",u'free',"{'garage': False, 'street': False, 'validated': False, 'lot': True, 'valet': False}",True,True,True,2.0,u'beer_and_wine',True,u'casual',True
3339,pHNvRjxSntENdQ3o2yq_VA,Frutta Bowls,13526 Village Park Dr,32837,28.3693278694,-81.4269048995,4.0,60,1,"Juice Bars & Smoothies, Acai Bowls, Food, Restaurants, Breakfast & Brunch",u'free',"{'garage': False, 'street': False, 'validated': False, 'lot': None, 'valet': False}",True,False,,1.0,u'none',True,,True
3368,nafswvhlSOsdja_vuzpRpQ,Verde Cantina,8 N Summerlin Ave,32801,28.5428276,-81.3686467,3.0,73,0,"Burgers, Mexican, Restaurants, Cocktail Bars, Bars, Nightlife",'free',"{'garage': True, 'street': True, 'validated': False, 'lot': False, 'valet': False}",True,True,True,2.0,u'full_bar',True,'casual',False
3404,72lsAGEma0YI8t-OCdHxCQ,Uno Pizzeria & Grill,8250 International Dr,32819,28.4464749,-81.4716242,3.5,399,1,"Beer, Wine & Spirits, American (Traditional), Pizza, Food, American (New), Gluten-Free, Restaurants",u'free',"{'garage': False, 'street': False, 'validated': False, 'lot': True, 'valet': False}",True,True,True,2.0,u'full_bar',True,u'casual',True
3434,lMW4Uhl6SeAWTFza5mb5xg,Boston Market,250 E Michigan St,32806,28.5125480059,-81.3747064769,3.0,19,1,"Restaurants, Caterers, Event Planning & Services, Comfort Food, American (Traditional), Chicken Shop, Sandwiches",'free',None,True,False,True,1.0,u'none',True,u'casual',True
3446,neYslCKmOIZMfrY0aqs-lg,La China,6473 S Chickasaw Trl,32829,28.470781,-81.266671,3.5,38,1,"Chinese, Restaurants",'no',"{'garage': False, 'street': False, 'validated': False, 'lot': False, 'valet': False}",True,False,True,1.0,'none',True,'casual',True
3561,iHmBoyZEWsJfryywZmrB8A,Ichiban Buffet,5529 International Dr,32819,28.4633932073,-81.4548304993,3.0,419,1,"Chinese, Restaurants, Japanese, Szechuan, Seafood, Buffets",u'no',"{'garage': False, 'street': False, 'validated': False, 'lot': False, 'valet': False}",True,False,True,2.0,u'beer_and_wine',True,u'casual',False
3581,96RSYhKtJXU70XmKuhtHeQ,LA Boiling Seafood Crab & Crawfish,1242 E Colonial Dr,32803,28.5529358752,-81.3629580189,4.0,354,1,"Restaurants, Cajun/Creole, Sandwiches, Seafood",u'free',"{'garage': False, 'street': True, 'validated': False, 'lot': True, 'valet': False}",True,False,True,2.0,u'beer_and_wine',True,u'casual',True
3583,zg9p8ZBFmEUCtfcBHNvzvg,City Diner,411 N Magnolia Ave,32801,28.5480493,-81.3765618,3.5,78,0,"Restaurants, Coffee & Tea, Diners, Food, Breakfast & Brunch, American (Traditional)",u'free',"{'garage': False, 'street': True, 'validated': False, 'lot': True, 'valet': False}",True,False,True,1.0,u'none',True,'casual',True
3597,CGM2xjTNp4DsJTE6x7uQvQ,Thunder Falls Terrace,6000 Universal Blvd,32819,28.4696172147,-81.4733092524,3.5,50,1,"Barbeque, Restaurants, Cafes, Chicken Wings",'free',"{'garage': False, 'street': False, 'validated': False, 'lot': False, 'valet': False}",True,False,True,2.0,'beer_and_wine',True,u'casual',False
3613,9R4uQYuIEj6YgkYxnAYX5w,Regal Eagle Smokehouse,200 Epcot Center Dr,32830,28.367599737,-81.5489840135,4.0,17,1,"Restaurants, Barbeque",,"{'garage': None, 'street': None, 'validated': None, 'lot': False, 'valet': False}",,,,,,,,
3625,CcSwOuC87DRw6ncTkmuYKQ,Holy Grain Coffee Shop,"6735 Conroy Rd, Ste 109",32835,28.494093907,-81.4746515117,4.5,131,1,"Sandwiches, Restaurants, Food, Coffee & Tea, Salad, Juice Bars & Smoothies",u'free',"{'garage': False, 'street': False, 'validated': False, 'lot': True, 'valet': False}",True,False,True,1.0,u'beer_and_wine',True,'casual',False
3634,cNMMVL2DljoxWKrVFUl2Jw,KFC,12195 S. Apopka Vineland Rd.,32836,28.3879181,-81.5056776,2.0,7,1,"Chicken Wings, Chicken Shop, Fast Food, Restaurants",,,,,,1.0,,True,,True
3659,MNGeGjU6ptV-eBN8iWdENw,Arepera La Nueva,29 S Semoran Blvd,32807,28.5455799103,-81.3104782104,4.0,112,1,"Breakfast & Brunch, Empanadas, Food, Latin American, Restaurants",u'free',"{'garage': False, 'street': False, 'validated': False, 'lot': True, 'valet': False}",True,True,True,1.0,'none',True,u'casual',False
3670,oRVLhCe6pVcDfDgS9g3_cA,Ruth's Chris Steak House,7501 W Sand Lake Rd,32819,28.4505202,-81.4839609,4.0,240,1,"Steakhouses, Restaurants, Seafood, Nightlife, Bars, Wine Bars, American (Traditional)",u'free',"{'garage': False, 'street': False, 'validated': False, 'lot': True, 'valet': True}",True,True,True,4.0,u'full_bar',True,u'dressy',True
3767,rU_L6h3jZRn2qBkMfoYkjg,Greek Flame Taverna,"7600 Dr Phillips Blvd, Ste 4",32819,28.4514278,-81.4905646,4.0,78,0,"Greek, Restaurants",u'no',"{'garage': False, 'street': False, 'validated': False, 'lot': True, 'valet': False}",True,True,True,2.0,u'beer_and_wine',True,u'casual',False
3785,b5eA9mluSKUngvkJ4ZCILA,Chimi King Buffet,5731 S Orange Blossom Trl,32839,28.475253,-81.396198,4.5,6,0,"Restaurants, Caribbean, Latin American, Buffets, Dominican",u'no',"{'garage': False, 'street': False, 'validated': False, 'lot': True, 'valet': False}",True,False,True,1.0,u'full_bar',True,u'casual',False
3849,zyr68M7lzjC8iAk-c_RQdg,Denny's Diner,3957 S Kirkman Rd,32811,28.5028356,-81.4579513,2.0,9,0,"Restaurants, American (New)",'no',"{'garage': False, 'street': False, 'validated': False, 'lot': False, 'valet': False}",True,False,True,2.0,'none',True,u'casual',True
3866,nGfl3yi7hwjrVso3wzG0wg,NYPD Pizza,2912 Edgewater Dr,32804,28.5776828,-81.3899705,3.0,71,0,"Pizza, Restaurants",u'free',"{'garage': False, 'street': False, 'validated': False, 'lot': True, 'valet': False}",True,False,True,1.0,u'beer_and_wine',True,u'casual',True
3993,JFzLiI-UPjQWqh72HBFbYw,Shakai Sushi Lounge,43 E Pine St,32801,28.5413689,-81.3781192,4.0,180,1,"Japanese, American (Traditional), Restaurants, Nightlife, Sushi Bars, Bars, Lounges",'no',"{'garage': None, 'street': True, 'validated': False, 'lot': False, 'valet': False}",True,True,True,2.0,u'full_bar',True,'casual',True
4074,NRm317BkaSO8L-10jeCNdA,Pie Five Pizza Co,"11325 University Blvd, Ste 206",32817,28.5982754,-81.2230044,4.0,25,0,"Pizza, Restaurants",'free',,True,False,True,1.0,'beer_and_wine',True,'casual',False
4158,suhuYUxAzeR_VBm0MNycNg,The Ramen,"486 N Orange Ave, Ste 8",32801,28.549255,-81.3793178,4.0,92,0,"Ramen, Japanese, Restaurants",u'free',"{'garage': False, 'street': True, 'validated': False, 'lot': False, 'valet': False}",True,False,True,2.0,u'beer_and_wine',True,u'casual',True
4167,Ob7B_nWzMj1sFMsd8G2H5w,Tabla,5827 Caravan Ct,32819,28.476785,-81.454861,3.5,112,0,"Indian, Restaurants, Thai, Event Planning & Services, Pakistani, Nightlife, Caterers, Bars, Chinese, Lounges",u'free',"{'garage': False, 'street': False, 'validated': False, 'lot': True, 'valet': False}",True,True,True,2.0,u'full_bar',True,u'casual',True
4190,jcEEwywzjNJWPv2SSya-Ew,Cafe Italiano Italian Restaurant,565 N Semoran Blvd,32807,28.5512575,-81.310358,2.5,14,0,"Pizza, Restaurants, Italian",u'no',"{'garage': False, 'street': False, 'validated': False, 'lot': True, 'valet': False}",True,True,True,2.0,u'beer_and_wine',True,u'casual',False
4208,gwDU5cFo_pcmZCP8fezUig,Macondo,1001 W Sand Lake Rd,32809,28.4513979,-81.3917916,2.5,19,0,"Restaurants, Music Venues, Caribbean, Spanish, Arts & Entertainment, Bars, Latin American, Nightlife, Colombian",,None,True,True,True,1.0,,True,'casual',True
4267,BY-mON_811cJlrgjyOK6rg,World of Beer,"7800 Dr Phillips Blvd, Ste 300",32819,28.4505887,-81.4890778,4.0,241,0,"Nightlife, Bars, Food, Gastropubs, Beer, Wine & Spirits, Pubs, Sports Bars, American (Traditional), Restaurants, Local Flavor",u'free',"{'garage': False, 'street': False, 'validated': False, 'lot': True, 'valet': False}",True,True,True,2.0,u'beer_and_wine',True,'casual',False
4288,TdCpU1NkE6aVWAdTzuhZ0g,The Smoothie Room,"25 W Crystal Lake St, Ste 163",32806,28.515438,-81.377629,4.5,106,1,"Vegetarian, Juice Bars & Smoothies, Tea Rooms, Live/Raw Food, Food, Restaurants, Vegan, Acai Bowls",u'free',"{'garage': True, 'street': True, 'validated': False, 'lot': False, 'valet': False}",True,False,True,1.0,'none',True,u'casual',False
4373,_OQFFggmR0P33DnmHHNTDg,Trattoria del Porto,5601 Universal Blvd,32819,28.4807480429,-81.4611056701,3.0,53,1,"Diners, Italian, American (New), Restaurants, Breakfast & Brunch",,"{'garage': False, 'street': False, 'validated': True, 'lot': False, 'valet': False}",True,True,True,2.0,u'full_bar',True,u'casual',False
4412,G1_eRH_fu7VKu87hZFF4jw,Fusion Bistro Sushi & Sake,6000 Universal Blvd,32819,28.4737673752,-81.4649949968,3.0,53,1,"Restaurants, Sushi Bars",u'no',"{'garage': True, 'street': False, 'validated': False, 'lot': False, 'valet': False}",True,False,True,2.0,u'beer_and_wine',True,u'casual',False
4423,etWIpxCrssa4td5lNwrcdQ,Napoli Italian Pizzeria,3928 S Semoran Blvd,32822,28.50386,-81.312748,3.5,85,1,"Italian, Restaurants, Pizza, Sandwiches, Chicken Wings, Salad",u'free',"{'garage': False, 'street': False, 'validated': False, 'lot': True, 'valet': False}",True,False,True,1.0,u'beer_and_wine',True,u'casual',True
4468,pF4GK7XGWssaSXwSgVY8lw,Tasty Wok,1237 E Colonial Dr,32803,28.5534127,-81.3629927,4.0,490,1,"Restaurants, Soup, Noodles, Chinese, Cantonese, Barbeque",u'no',"{'garage': False, 'street': True, 'validated': False, 'lot': False, 'valet': False}",True,False,True,2.0,u'none',None,'casual',None
4550,ufZddj_Wo51i7WKGKORl_g,Proccolino's Ristorante & Pizzeria,4080 S Goldenrod Rd,32822,28.4891549,-81.2858845,3.5,98,1,"Italian, Pizza, Restaurants, Salad",u'free',"{'garage': False, 'street': False, 'validated': False, 'lot': True, 'valet': False}",True,True,True,1.0,u'none',True,u'casual',True
4602,PySoEDAeoksJcVCJi8Sjzg,El Patron Mexican Restaurant & Cantina,12167 S Apopka Vineland Rd,32836,28.3885893,-81.50482,4.0,1338,1,"Food, Tacos, New Mexican Cuisine, Restaurants, Breakfast & Brunch, Spanish, Tex-Mex, Mexican",u'free',"{'garage': False, 'street': False, 'validated': False, 'lot': True, 'valet': False}",True,True,True,2.0,u'full_bar',True,u'casual',True
4624,aXgDfupEoIh3gD6RH-RY5g,Tin & Taco - College Park,2429 Edgewater Dr,32804,28.5733592,-81.3893245,4.5,58,1,"Salad, Nightlife, Mexican, Tacos, Bars, Beer Bar, Restaurants",,"{'garage': True, 'street': None, 'validated': False, 'lot': None, 'valet': False}",True,False,True,,u'beer_and_wine',True,,True
4671,Yf7ZOFsQwAmw2ya5LYaABQ,Duffy's Sports Grill,4158 Conroy Rd,32839,28.4904688129,-81.4300772029,3.5,333,1,"American (Traditional), Nightlife, Burgers, Sports Bars, Restaurants, Bars",u'free',"{'garage': False, 'street': False, 'validated': False, 'lot': True, 'valet': False}",True,False,True,2.0,u'full_bar',True,'casual',True
4673,GeHj7Thq19CE9T8sQBSw2g,China Jade Buffet Mongolian Grill,819 Herndon Ave,32803,28.5558803,-81.337142,3.0,9,0,"Restaurants, Chinese",,"{'garage': False, 'street': False, 'validated': False, 'lot': True, 'valet': False}",True,False,True,1.0,u'beer_and_wine',True,u'casual',False
4681,paHbKmPjwirnIP7esoTPCQ,Vanbarry's Public House,4120 S Orange Ave,32806,28.4977333,-81.3760972,4.0,407,1,"Cocktail Bars, American (New), Arts & Entertainment, Sandwiches, Restaurants, Nightlife, Bars, Music Venues",u'free',"{'garage': False, 'street': False, 'validated': False, 'lot': True, 'valet': True}",True,True,True,2.0,u'full_bar',True,u'casual',False
4726,xXcsejRYjyWBh3e-eGGo4w,Contemporary Grounds,4600 N World Dr,32830,28.4146307182,-81.5743974491,3.5,10,1,"Coffee & Tea, Bakeries, Cafes, Food, Restaurants",u'free',"{'garage': False, 'street': False, 'validated': False, 'lot': False, 'valet': False}",True,False,False,2.0,u'none',True,u'casual',False
4748,o4fqO8VGY0e3w8RX70HG3A,Papa John's Pizza,10727 Narcoossee Rd.,32832,28.4118181,-81.2415143,2.5,11,1,"Pizza, Restaurants",u'no',"{'garage': False, 'street': False, 'validated': False, 'lot': False, 'valet': False}",True,False,True,1.0,u'none',True,u'casual',True
4777,ph3OKXwCWeT41vTK5SDaQg,La Hacienda,11242 S Orange Blossom Trl,32837,28.401313,-81.406138,4.0,6,1,"Mexican, Restaurants",,,True,False,True,2.0,,True,'casual',
4784,8xbSg5zjg9Z92hPjEsXy4w,Pizza Hut,2153 Americana Blvd,32839,28.4882808,-81.408133,1.0,22,1,"Chicken Wings, Italian, Pizza, Restaurants",'no',,True,False,True,1.0,,True,,True
4864,XxixtrEXLI9Rr1Ojaq70Zw,The Waterfront,4201 S Orange Ave,32806,28.4974486,-81.3752352,4.0,224,1,"Breakfast & Brunch, American (Traditional), Seafood, Restaurants",u'free',"{'garage': False, 'street': False, 'validated': False, 'lot': True, 'valet': False}",True,True,True,2.0,u'full_bar',None,'casual',None
4904,afY2kA4zwNKiI0sSprgJsQ,NYPD Pizza,2589 S Hiawassee Rd,32835,28.5142046,-81.4853391,4.0,158,1,"Pizza, Italian, Restaurants",u'free',"{'garage': False, 'street': False, 'validated': False, 'lot': True, 'valet': False}",True,False,True,2.0,u'beer_and_wine',True,u'casual',True
4947,w2AXBahwW_24wcJcspFsXg,New York Harvest Cafe& Smoothies Inc.,"200 Et Robinson St, Ste 240",32801,28.5453809,-81.375405,4.5,7,0,"Cafes, Vegetarian, American (New), Restaurants, Halal, Food, Juice Bars & Smoothies",'free',,True,False,True,1.0,u'none',True,u'casual',False
4953,0AzLzHfOJgL7ROwhdww2ew,Renaissance Orlando at SeaWorld,6677 Sea Harbor Dr,32821,28.4117333957,-81.4684724808,3.5,290,1,"Hotels, Hotels & Travel, Restaurants, Event Planning & Services, Venues & Event Spaces",u'paid',"{'garage': False, 'street': False, 'validated': False, 'lot': False, 'valet': False}",True,True,True,3.0,u'full_bar',False,u'casual',False
5024,mW3Av1opvuUC76F2mfEnhA,Wawa,6500 W Sand Lake Rd,32819,28.4495610755,-81.466311922,3.5,58,1,"Gas Stations, Food, Automotive, Convenience Stores, Sandwiches, Restaurants, Coffee & Tea",u'free',"{'garage': False, 'street': False, 'validated': False, 'lot': True, 'valet': False}",True,,,1.0,,True,,True
5048,k8DuN7PJBW9_-z9VpQ6W4g,Wawa,8049 East Colonial Dr,32807,28.569088,-81.2783,4.0,22,1,"Food, Ice Cream & Frozen Yogurt, Salad, Fast Food, Restaurants, Automotive, Gas Stations, Convenience Stores, Sandwiches, Coffee & Tea",u'free',"{'garage': False, 'street': False, 'validated': False, 'lot': False, 'valet': False}",True,False,False,1.0,'beer_and_wine',True,'casual',True
5119,sfQPtnj1IkLfB5P2XmAkSA,Moe's Southwest Grill,7541 D West Sandlake Rd,32819,28.450763,-81.485182,3.0,29,0,"American (Traditional), Tex-Mex, Mexican, Restaurants",u'free',"{'garage': False, 'street': False, 'validated': False, 'lot': True, 'valet': False}",True,False,True,1.0,u'beer_and_wine',True,u'casual',True
5173,4jW-ZDeCPIl9aXvTWcATlA,The Delaney Hotel,1315 S Orange Ave,32806,28.5260925298,-81.3761479798,5.0,15,1,"Hotels & Travel, Hotels, American (New), Event Planning & Services, Restaurants, Venues & Event Spaces",u'free',,True,True,,,,,,
5178,zNeUKQpxP-IKpYYVLRKxgg,Cilantro's Taqueria,1427 S Bumby Ave,32806,28.5245062388,-81.3514076538,4.5,218,1,"Tacos, Tex-Mex, Restaurants, Mexican, Street Vendors, Food, Soup",'free',"{'garage': False, 'street': True, 'validated': False, 'lot': False, 'valet': False}",True,False,True,1.0,u'beer_and_wine',True,'casual',False
5190,ChCHhUHIZdxpY9jxl3WIKg,Denny's,5825 International,32819,28.4628577655,-81.4598062634,3.0,83,1,"Diners, Breakfast & Brunch, Restaurants, American (Traditional)",'free',"{'garage': False, 'street': False, 'validated': False, 'lot': True, 'valet': False}",True,False,True,1.0,u'none',True,u'casual',True
5192,-bjdCwpumWJIE9BsqAdGzw,Jack's Place,9700 International Dr,32819,28.4299015,-81.4723534,4.5,61,1,"Restaurants, Steakhouses, Seafood, American (Traditional)",u'free',"{'garage': False, 'street': False, 'validated': True, 'lot': True, 'valet': True}",True,True,True,3.0,u'full_bar',True,u'dressy',False
5194,xzNpwCvIKe2TfmvlEpw0IQ,BB King's Blues Club,"9101 International Dr, Ste 2230",32819,28.4320153,-81.4700925,3.5,368,1,"Music Venues, Jazz & Blues, American (Traditional), Nightlife, Restaurants, Arts & Entertainment, Soul Food",u'no',"{'garage': True, 'street': False, 'validated': False, 'lot': False, 'valet': True}",True,True,True,2.0,u'full_bar',True,u'casual',True
5268,XAnqx_t57DELG5w5hH-aRA,The Jolly Crab,2100 Whisper Lakes Blvd,32837,28.3969439225,-81.4051748743,5.0,39,0,"Cajun/Creole, Restaurants, Asian Fusion, Fish & Chips, Seafood",u'no',"{'garage': False, 'street': False, 'validated': False, 'lot': True, 'valet': False}",True,True,True,2.0,u'beer_and_wine',True,'casual',False
5308,9RC1L3PZ4fGlHco-25M0AA,Chuan Lu Garden,11891 E Colonial Dr,32826,28.567185,-81.205901,3.5,90,0,"Restaurants, Asian Fusion, Chinese, Seafood, Noodles",'no',"{'garage': False, 'street': False, 'validated': False, 'lot': True, 'valet': False}",True,True,True,1.0,u'beer_and_wine',None,'casual',None
5346,Cu2nnGmYbhuAGMKGUQsd4Q,Uncle Henry's Country Kitchen,624 Wilks Ave,32809,28.473977,-81.36887,1.5,5,0,"American (Traditional), Southern, Restaurants",'no',,True,False,True,1.0,,True,'casual',False
5385,nSOAsKB7B6fvfcttEgjplQ,JMC Latin Food Market,4901 E Colonial Dr,32803,28.5539301257,-81.324420087,4.0,5,1,"Dominican, Caribbean, Restaurants, Puerto Rican, Spanish",u'free',,True,,,1.0,,True,,True
5386,w6OVXlNqhmy3zYj-3q26Yg,Kim Wu Chinese,4904 S Kirkman Rd,32811,28.4911828037,-81.4597110013,4.0,394,0,"Soup, Chinese, Restaurants, Seafood",'free',"{'garage': False, 'street': False, 'validated': False, 'lot': True, 'valet': False}",True,True,True,2.0,u'beer_and_wine',None,'casual',None
5504,RP_U_TyolABy3eYuRC8QpQ,Ming Court,9188 International Dr,32819,28.431562,-81.471549,3.0,325,0,"Asian Fusion, Chinese, Dim Sum, Event Planning & Services, Caterers, Cantonese, Party & Event Planning, Sushi Bars, Restaurants, Venues & Event Spaces",u'free',"{'garage': False, 'street': False, 'validated': False, 'lot': True, 'valet': False}",True,True,True,2.0,u'full_bar',True,u'casual',False
5530,f3teByaeIKPTYetAawUtxg,Café Pinar,"730 W Sand Lake Rd, Ste 30",32809,28.4500355797,-81.3879469963,4.5,167,1,"Restaurants, Breakfast & Brunch, Cuban, Latin American",u'free',"{'garage': False, 'street': False, 'validated': False, 'lot': True, 'valet': False}",True,False,True,1.0,'none',True,u'casual',True
5606,Fg1DIY00ZxcyHpf_oh9wBg,Korean BBQ Taco Box 3,"Cheveron Gas Station Parking lot, 1601 E Colonial Dr",32803,28.553398,-81.359936,4.0,17,0,"Restaurants, Food Stands",u'no',"{'garage': False, 'street': False, 'validated': False, 'lot': True, 'valet': False}",True,False,True,1.0,u'none',True,u'casual',False
5609,PYBBde8mfx36Fq4n936b_w,Eden's Fresh,500 E Central Blvd,32801,28.5421035709,-81.3712624176,4.0,29,1,"Salad, Sandwiches, American (New), Restaurants",u'free',"{'garage': True, 'street': True, 'validated': False, 'lot': False, 'valet': False}",True,False,True,1.0,u'none',True,'casual',True
5628,A1Ivpjz0qeU7ygRUu97FgQ,Subway,"455 N Alafaya Trl, Room M10",32828,28.5534031,-81.2028809,3.5,9,0,"Restaurants, Sandwiches, Fast Food",'free',,True,False,True,1.0,'none',True,'casual',False
5684,LLDyzDBD69jWmhRRX1i5xA,Little Caesars Pizza,"6601 Old Winter Garden Rd, Ste 105",32835,28.5396302,-81.4743696,3.5,10,1,"Pizza, Restaurants",'no',"{'garage': False, 'street': False, 'validated': False, 'lot': False, 'valet': False}",True,False,False,1.0,'none',True,'casual',
5699,IrKVArYXxvJ1oSFJHGNB3w,Duffy's Subs,10042 University Blvd,32817,28.597289,-81.243492,4.5,14,0,"Cheesesteaks, Burgers, Delis, Sandwiches, Restaurants",u'free',"{'garage': False, 'street': False, 'validated': False, 'lot': True, 'valet': False}",True,False,True,1.0,u'none',True,u'casual',True
5776,CqJA4LD9OhoDAiyiqQHLhg,China Jade,7308 International Dr,32819,28.4555148,-81.4713668,2.0,20,0,"Chinese, Restaurants",u'no',,True,True,True,2.0,u'full_bar',True,u'casual',
5808,k5yMyr4TGukaPcz3F2To0A,Marcelo's Bistro,1500 Sand Lake Rd,32809,28.4449212933,-81.3955700397,3.5,8,1,"Food, American (New), Restaurants",'paid',,True,True,True,2.0,,True,'casual',False
5835,p1A48P7yWTYsOwKoYl25ww,Stonington's Seafood,2316 S Kirkman Rd,32811,28.5165769,-81.4599495,4.0,180,1,"Sandwiches, Seafood, Restaurants",'no',"{'garage': False, 'street': None, 'validated': False, 'lot': None, 'valet': False}",True,False,True,1.0,'none',True,u'casual',False
5860,7IYR04BCuFaCdVn2vIYiRw,Nature's Table,8001 S Orange Blossom Trl,32809,28.446036,-81.395461,3.5,11,1,"Vegetarian, Restaurants",u'no',,True,False,True,1.0,u'none',True,u'casual',True
5873,LPa3rpKsApYeiQL_qxZ_jA,The Wave... of American Flavors,4600 N World Dr,32830,28.414871,-81.574364,3.5,348,1,"American (New), Restaurants",'free',"{'garage': False, 'street': False, 'validated': False, 'lot': True, 'valet': False}",True,True,True,2.0,u'full_bar',True,u'casual',False
5939,2TXf9KAC1tNjtvxB9n9Vmw,Mi Casa Tequila Taqueria,9939 Universal Blvd,32819,28.425776,-81.4349848,4.0,91,1,"Mexican, Restaurants",'free',"{'garage': False, 'street': False, 'validated': True, 'lot': True, 'valet': True}",True,True,True,2.0,'full_bar',True,u'casual',False
5963,FX6hd5ppyK7HvQg2yOrHXA,Flippers Pizzeria,80 W Grant St,32806,28.5159190049,-81.378384276,3.5,88,1,"Food, Pizza, Sandwiches, Restaurants",u'free',"{'garage': False, 'street': True, 'validated': False, 'lot': False, 'valet': False}",True,False,True,2.0,u'beer_and_wine',True,u'casual',True
6033,4zNRCrIRR4r3MjD1lyF_Bw,Chick-fil-A,4200 Conroy Rd,32839,28.485384,-81.432051,4.5,36,1,"Caterers, Event Planning & Services, Desserts, Restaurants, Food, Fast Food",'free',"{'garage': False, 'street': False, 'validated': False, 'lot': False, 'valet': False}",True,False,True,1.0,'none',True,'casual',False
6070,tCZoMAPrsdHcNHUhRkeQUg,Turkey Lake Service Station,4110 Florida's Tpke,32835,28.5145791645,-81.4992641627,3.5,30,1,"Automotive, Gas Stations, Event Planning & Services, Hotels & Travel, Restaurants, Hotels, Rest Stops, Fast Food",,"{'garage': False, 'street': False, 'validated': False, 'lot': True, 'valet': False}",True,,,1.0,,,,
6099,XJbx6Yaib9XM_wa0furLzw,The Hangar Bar & Grille,"2305 Edgewater Dr, Ste H",32804,28.5725812109,-81.3892699834,2.5,33,0,"Nightlife, American (New), Restaurants, Comfort Food, Bars, Pubs",u'free',"{'garage': True, 'street': True, 'validated': False, 'lot': False, 'valet': False}",True,True,True,2.0,u'full_bar',True,u'casual',False
6115,0y9y5Pe1DUsDyz6hgorvkQ,CUBA 1800’s,8700 E Colonial Dr,32817,28.5677542,-81.2691976,5.0,29,1,"Cuban, Nightlife, Restaurants, Bars",u'free',"{'garage': False, 'street': None, 'validated': False, 'lot': True, 'valet': False}",True,False,True,,u'beer_and_wine',True,,True
6140,K1n9ew2Vz9Xgx3PYPMmD7w,Jimmy John's,3164 E Colonial Dr,32803,28.553075,-81.343386,3.0,28,1,"Sandwiches, Food Delivery Services, Delis, Fast Food, Restaurants, Food",'no',"{'garage': False, 'street': False, 'validated': False, 'lot': False, 'valet': False}",True,False,True,1.0,'none',True,u'casual',True
6253,4t-RvT_2SJbxCOR1SYkYFg,SHOTS - Orlando,"69 E Pine St, Fl 1",32801,28.541491,-81.37761263,4.0,68,1,"American (New), Dance Clubs, Food, Restaurants, Bars, Beer, Wine & Spirits, Nightlife",u'free',"{'garage': True, 'street': False, 'validated': False, 'lot': False, 'valet': False}",True,False,True,2.0,'full_bar',True,u'casual',True
6257,mn4smAPJFxzUCWayIoZncw,Hungry Howie's Pizza & Subs,7628 Sun Vista Way,32822,28.4921796,-81.284515,2.0,15,1,"Italian, Chicken Wings, Pizza, Restaurants, Fast Food",'no',,True,False,False,2.0,'none',True,'casual',True
6261,0rjvIOWhFLrSAr1IQJgACA,Spring Rolls Chineese Restaurants,2631 N Pine Hills Rd,32808,28.5790121,-81.4512234,3.0,7,1,"Chinese, Restaurants",,,,,,2.0,,True,,True
6283,D-Vmdw2PlWNAxAKERmQyyg,Downtown CREDO,550 E Rollins St,32803,28.5738273,-81.3708644,4.5,63,1,"Coffee & Tea, Food, Local Services, Restaurants, Community Service/Non-Profit, Sandwiches",'free',"{'garage': True, 'street': False, 'validated': True, 'lot': False, 'valet': False}",True,,,1.0,,True,,
6296,h64sX0cTFpfkiSxg987qfg,Relax Grill at Lake Eola,211 Eola Pkwy,32801,28.544854,-81.375135,3.5,292,1,"Middle Eastern, Greek, American (Traditional), American (New), Restaurants",u'no',"{'garage': False, 'street': True, 'validated': False, 'lot': False, 'valet': False}",True,False,True,2.0,u'full_bar',True,u'casual',False
6331,Z9kR3l1GEafiHWcbYPSYsQ,Shogun,4441 Hoffner Rd,32812,28.4816779428,-81.3300896063,3.5,28,0,"Japanese, Asian Fusion, Sushi Bars, Restaurants",u'free',"{'garage': False, 'street': False, 'validated': False, 'lot': True, 'valet': False}",True,True,True,2.0,u'full_bar',True,u'casual',False
6349,QoiLXUucsaTnT5GIidsvgw,World Cafe,6582 International Dr,32819,28.4578736,-81.469994,3.5,28,1,"Cafes, Restaurants, Breakfast & Brunch, Delis, American (Traditional), Burgers, British, Coffee & Tea, Fish & Chips, Food, Sandwiches",u'free',"{'garage': False, 'street': False, 'validated': False, 'lot': True, 'valet': False}",True,True,True,1.0,u'beer_and_wine',True,u'casual',True
6354,6g1MCtrNeolwR4-3CsZCPw,Wawa,3025 Curry Ford Rd,32806,28.5245300325,-81.3450131964,3.5,35,1,"Soup, American (New), Food, Convenience Stores, Sandwiches, Automotive, Restaurants, Coffee & Tea, Ice Cream & Frozen Yogurt, Gas Stations",'free',"{'garage': False, 'street': False, 'validated': False, 'lot': True, 'valet': False}",True,False,False,1.0,'beer_and_wine',True,'casual',True
6642,Fdh4gwAYeBv2FKgcjcF5Pg,Honey Baked Ham Company,2924 E Colonial Dr,32803,28.5530347,-81.3460863,3.5,15,1,"Food, Cafes, Delis, Meat Shops, Specialty Food, Event Planning & Services, Sandwiches, Caterers, Restaurants",,"{'garage': False, 'street': False, 'validated': False, 'lot': False, 'valet': False}",True,False,False,1.0,'none',True,'casual',True
6696,NWQTLlU34foh-s_p4I28qw,Ruby Tuesday,13145 S Orange Blossom Trail,32837,28.3745227,-81.4038792,3.5,61,0,"Restaurants, American (Traditional), Burgers",'free',"{'garage': False, 'street': False, 'validated': False, 'lot': True, 'valet': False}",True,True,True,2.0,u'full_bar',True,u'casual',True
6719,FytZ5cMQXcSw4CWxtdIlgw,Brooklyn Coffee Shop,912 N Mills Ave,32803,28.557166814,-81.3644911348,4.5,127,0,"Comfort Food, Restaurants, Food, Breakfast & Brunch, Tapas Bars, Brazilian, Coffee & Tea, Tapas/Small Plates",u'free',"{'garage': False, 'street': True, 'validated': False, 'lot': False, 'valet': False}",True,True,True,1.0,u'none',True,'casual',False
6738,CFPq1Plq3OU6uNL5k3Ue0g,ICON Park,8375 International Dr,32819,28.4444018,-81.4695021,3.5,391,1,"Amusement Parks, Local Flavor, Active Life, Arts & Entertainment, Tours, Restaurants, Hotels & Travel, Observatories, Shopping Centers, Shopping",,"{'garage': True, 'street': False, 'validated': False, 'lot': True, 'valet': True}",True,,,2.0,,,,
6743,h7dpYiNvYFkd_j8yc4OsRg,Pita Pit,11798 E Colonial Dr,32817,28.5653875,-81.2083568,4.0,18,0,"Fast Food, Restaurants, Sandwiches, Mediterranean, American (New), Food",,,True,False,True,1.0,u'none',True,'casual',True
6809,ExhMCqfWAfUXS49ujPbZIw,Martha's Vineyard,1800 Epcot Resorts Blvd,32830,28.3712577,-81.556953,3.0,8,1,"Lounges, Restaurants, Bars, Nightlife, American (Traditional)",'free',"{'garage': False, 'street': False, 'validated': False, 'lot': True, 'valet': False}",True,False,True,2.0,u'full_bar',False,'casual',False
6852,fqA7BmH7ky64Ue530OYo3g,Chai Thai Cuisine,3334 Curry Ford Rd,32806,28.5242029,-81.3414157,3.5,5,0,"Thai, Restaurants",,"{'garage': False, 'street': False, 'validated': False, 'lot': False, 'valet': False}",True,True,True,2.0,'none',True,u'casual',False
6884,h22laRdj9atAVgY3LWkKug,Coral Reef Restaurant,1520 Avenue Of The Stars,32836,28.3752174,-81.5504278,3.5,44,1,"Seafood, Restaurants",'free',"{'garage': False, 'street': False, 'validated': False, 'lot': False, 'valet': False}",True,True,True,2.0,,False,'casual',False
6885,SwVxsdUD3khVMGs84kzdgw,Pho Pasteur,710 S Goldenrod Rd,32822,28.5370501,-81.285846,3.5,16,0,"Restaurants, Vietnamese",,"{'garage': False, 'street': False, 'validated': False, 'lot': True, 'valet': False}",True,True,True,1.0,u'beer_and_wine',True,u'casual',True
6943,7xjtFqEbovreJ667KaP90A,Foxtail Coffee Express,805 Lee Rd,32810,28.6086970725,-81.3914696127,4.0,32,1,"Breakfast & Brunch, Coffee & Tea, Food, Bagels, Restaurants",u'free',"{'garage': False, 'street': False, 'validated': False, 'lot': True, 'valet': False}",True,False,,1.0,u'none',True,,True
6964,xcbHarqv60yb7LFsy_VNhA,Panda Express,"9985 Tagore Pl, Ste 105",32824,28.3901379643,-81.2449768228,3.0,26,1,"Chinese, Fast Food, Restaurants",,"{'garage': False, 'street': False, 'validated': False, 'lot': False, 'valet': False}",True,False,True,1.0,,True,'casual',True
7000,X3PDvwmyBylnkPfXNcz0qw,Amor Em Pedacos Bakery,5576 International Dr,32819,28.4619529,-81.4556644,4.0,149,1,"Food, Bakeries, Brazilian, Desserts, Cupcakes, Restaurants",u'free',"{'garage': False, 'street': False, 'validated': False, 'lot': True, 'valet': False}",True,False,True,1.0,u'beer_and_wine',True,'casual',False
7008,H3R80F9BO_EwZjisBpwtkw,KFC,436 S Semoran Blvd,32807,28.5379263218,-81.3108222884,1.5,18,1,"Chicken Wings, Restaurants, Fast Food, Chicken Shop",None,,True,False,True,1.0,,True,'casual',True
7066,LJ4bC5wI6qChwgc8VtcmyQ,Nine18,1 N Jacaranda St,32836,28.403354,-81.527306,4.0,29,0,"American (New), Restaurants",u'free',"{'garage': False, 'street': False, 'validated': False, 'lot': False, 'valet': True}",True,True,True,3.0,u'full_bar',False,'dressy',False
7137,a_H86-nBVnzSfAtwjDJAkA,Pizza Hut,"10395 Narcoossee Rd, Ste 200",32827,28.4162864381,-81.2423944473,2.5,22,1,"Restaurants, Chicken Wings, Pizza, Italian",,,True,False,False,1.0,,True,'casual',True
7207,MA95GuvTj7TE6hzw80SK8g,Little Caesar's Pizza,11222 E Colonial Dr,32817,28.5673736,-81.2196102,2.0,15,1,"Pizza, Restaurants",,,True,False,False,1.0,u'none',True,,
7215,PwWhrx_MOZSNT0nU2qNm_Q,David's Club Bar & Grill,6001 Destination Pkwy,32819,28.424891,-81.457921,3.0,92,1,"American (New), Restaurants, American (Traditional), Nightlife, Bars, Gastropubs",u'paid',"{'garage': True, 'street': False, 'validated': True, 'lot': False, 'valet': True}",True,True,True,2.0,u'full_bar',True,u'casual',False
7288,_OxNsCtiR3JoTtpFYZWVlA,Sabor do Sul Brazilian Steakhouse,"8204 Crystal Clear Ln, Ste 1700",32809,28.4481129,-81.4006804,3.5,31,0,"Restaurants, Buffets, Steakhouses, Brazilian",u'free',"{'garage': True, 'street': False, 'validated': False, 'lot': False, 'valet': False}",True,True,True,2.0,u'full_bar',True,u'casual',True
7320,o9hs4E-B6lMugSloQIk1lg,A Slice Of NY Pizza,"13851 S John Young Pkwy, Ste 106",32837,28.3659456,-81.4240781,4.0,97,1,"Food, Pizza, Restaurants, Event Planning & Services, Caterers, Desserts",u'free',"{'garage': False, 'street': True, 'validated': False, 'lot': False, 'valet': False}",True,False,True,1.0,'none',True,u'casual',True
7328,WCBWOntHjrySQvV1vQXGMw,Nature's Table Cafe,8701 Maitland Summit Blvd,32810,28.6356695,-81.3999075,4.0,7,1,"Cafes, Restaurants",'free',"{'garage': False, 'street': False, 'validated': False, 'lot': False, 'valet': False}",True,False,True,1.0,u'none',True,'casual',False
7367,nbD4hcCWGT3VgL0KkQ70Jg,Taj Punjabi,6524 Carrier Dr,32819,28.4557276,-81.4700936,2.5,70,1,"Indian, Restaurants, Halal, Pakistani",u'no',None,True,True,True,2.0,u'beer_and_wine',True,u'casual',True
7382,Bn_dXarq8TnGHm4VIEUVHA,QDOBA Mexican Eats,"One Airport Blvd, Airside 3, Orlando Intrnl Airport (MCO), Airside 3",32827,28.427929,-81.31428,2.5,64,1,"Tex-Mex, Mexican, Restaurants, Fast Food, Event Planning & Services, Caterers",'no',"{'garage': None, 'street': False, 'validated': False, 'lot': False, 'valet': False}",True,False,False,1.0,'beer_and_wine',True,u'casual',True
7433,HEf18-z7MyGPlb_ezY9_4w,My Boricua Kitchen,,32824,28.3756472,-81.3619402,4.5,14,1,"Caribbean, Food Trucks, Food, Puerto Rican, Restaurants",,"{'garage': False, 'street': False, 'validated': False, 'lot': False, 'valet': False}",,False,True,,,True,,
7521,Q-Tm6PrY5LIdaZZLdIx26A,The Flame Broiler,"54 West Church St, Ste 150",32801,28.5400479,-81.3801545,3.5,41,0,"Restaurants, American (New)",u'no',"{'garage': True, 'street': False, 'validated': False, 'lot': False, 'valet': False}",True,False,True,1.0,u'none',True,u'casual',True
7545,5K6W5eZKzJNImYVxHG7G4g,Texas de Brazil,"5259 International Dr, Ste F1",32819,28.4676958,-81.4510707,4.0,825,1,"Steakhouses, Gluten-Free, Buffets, Event Planning & Services, Brazilian, Venues & Event Spaces, Seafood, Restaurants",u'no',"{'garage': False, 'street': False, 'validated': False, 'lot': True, 'valet': True}",True,True,True,3.0,'full_bar',True,'casual',True
7601,5hvOO576Bf3UcgYbeb9dcQ,J & G Sport Bar,4976 Millenia Blvd,32839,28.479247,-81.441587,4.0,8,0,"Nightlife, Food, Specialty Food, Ethnic Food, Pizza, Bars, Restaurants, Sports Bars",,"{'garage': False, 'street': False, 'validated': False, 'lot': False, 'valet': False}",True,False,True,1.0,u'full_bar',True,u'casual',True
7668,U2Hqg6hg76Qq5sVAdaiNyQ,La Madeleine,"8001 S Orange Blossom Trl, Ste 202",32809,28.4458682,-81.3952839,4.0,72,0,"Food, Event Planning & Services, Bakeries, Caterers, Breakfast & Brunch, Cafes, Restaurants, French, Desserts",'free',"{'garage': False, 'street': False, 'validated': False, 'lot': True, 'valet': False}",True,False,True,2.0,u'none',True,'casual',None
7729,mjPiYLFTxq_vmJHX9nX7ag,Panera Bread,3463 E Colonial Dr,32803,28.5546013,-81.3417831,2.5,60,1,"Bagels, Breakfast & Brunch, Food, Salad, Delis, Sandwiches, Bakeries, Soup, Restaurants",u'free',"{'garage': False, 'street': None, 'validated': False, 'lot': True, 'valet': False}",True,False,True,1.0,u'none',True,u'casual',True
7767,NkYfCBULoKFyk9-eTt_jtQ,George's Hideaway,5507 Edgewater Dr,32810,28.6086263,-81.4120582,4.0,16,1,"Nightlife, Restaurants, Pool Halls, Dive Bars, Bars, American (Traditional)",u'paid',"{'garage': False, 'street': False, 'validated': False, 'lot': True, 'valet': False}",True,False,True,1.0,u'full_bar',True,'casual',False
7774,2VMQKBtsCrzpVlaFbT36yw,Castello's Pizza,8947 Conroy Windermere Rd,32835,28.494512,-81.507184,3.0,31,1,"Restaurants, Food, Pizza, Food Delivery Services",u'no',"{'garage': False, 'street': False, 'validated': False, 'lot': True, 'valet': False}",True,True,,3.0,u'none',True,u'casual',True
7807,q9hetnjt6QFz6lOj4IrTuQ,Panera Bread,11472 University Blvd,32817,28.59716,-81.221564,2.5,35,1,"Soup, Food, Salad, Restaurants, Bakeries, Bagels, Delis, Sandwiches, Breakfast & Brunch",'free',"{'garage': False, 'street': False, 'validated': False, 'lot': True, 'valet': False}",True,False,True,1.0,u'none',True,u'casual',True
7822,GZg3l9IYCWV5JDL3rlhkTg,Royal Indian Cuisine and Bar,8216 World Center Dr,32821,28.3566253,-81.4946355,4.0,43,1,"Bars, Nightlife, Beer Bar, Indian, Restaurants",u'no',"{'garage': None, 'street': True, 'validated': False, 'lot': False, 'valet': False}",True,True,True,,u'beer_and_wine',True,,True
7894,LnqoOx4fa8LUxgpRjZHVog,Sal's Market Deli,5601 Universal Blvd,32819,28.480744,-81.460706,3.5,54,1,"Restaurants, Delis",'free',"{'garage': False, 'street': False, 'validated': True, 'lot': False, 'valet': False}",True,False,True,2.0,u'beer_and_wine',True,u'casual',False
7914,npkypk0H-ihQGMauL3jjFQ,Moe's Southwest Grill,"11062 International Dr Unit, Ste 164",32821,28.4045286,-81.4570374,3.0,46,1,"Tex-Mex, Restaurants, Mexican",'free',"{'garage': False, 'street': False, 'validated': False, 'lot': True, 'valet': False}",True,False,True,1.0,'none',True,'casual',True
7943,a2c2LEBXmFgyCeklauuPsw,Bonchon Orlando,"5475 Orlando Gateway Village Cir, 102A",32812,28.456245,-81.31096,3.5,288,1,"Korean, Restaurants, Chicken Wings, Asian Fusion",'no',"{'garage': False, 'street': None, 'validated': False, 'lot': True, 'valet': False}",True,False,True,2.0,u'beer_and_wine',True,'casual',True
8078,kvHrD9Ifzu5Gr8o48cbeBA,Hooters,5300 Kirkman Rd,32819,28.4853735046,-81.459364927,2.5,80,1,"Restaurants, Nightlife, American (Traditional), American (New), Bars, Sports Bars, Chicken Wings",'free',"{'garage': False, 'street': False, 'validated': False, 'lot': True, 'valet': False}",True,False,True,2.0,u'full_bar',True,'casual',True
8101,wWyPhdBD6H8HyD-aXlYAuw,Boardwalk Fresh Burgers & Fries,3162 E Colonial Dr,32803,28.5529939197,-81.3432884216,2.5,43,0,"American (Traditional), Restaurants, Burgers, Fast Food",u'no',"{'garage': False, 'street': False, 'validated': False, 'lot': True, 'valet': False}",True,False,True,1.0,u'beer_and_wine',True,u'casual',False
8113,UK4YvnAQYLIJQvmMb9RKdg,Solaris,8701 World Center Dr,32821,28.3609503,-81.5099458,3.5,42,0,"Restaurants, American (Traditional)",'free',"{'garage': False, 'street': False, 'validated': False, 'lot': False, 'valet': False}",True,True,True,2.0,u'full_bar',False,u'casual',False
8123,kSTjBjuvqpKU65PwrjzUmg,Garibaldi Mexican Restaurant,929 N Semoran Blvd,32807,28.5591406,-81.3103922,3.5,267,0,"Restaurants, Mexican",u'free',"{'garage': False, 'street': False, 'validated': False, 'lot': True, 'valet': False}",True,True,True,2.0,u'full_bar',True,'casual',False
8333,4ukzzkXyzFO_iu_lMuyT2Q,Oley's Kitchen & BBQ,2700 Rio Grande Ave,32805,28.51395,-81.401572,4.0,176,1,"Caribbean, Soul Food, American (New), Barbeque, Restaurants",u'free',"{'garage': False, 'street': False, 'validated': False, 'lot': True, 'valet': False}",True,True,True,2.0,u'none',True,u'casual',True
8364,0BGoel6on7yGvojzOqOEAQ,Tiffins Restaurant,2901 Osceola Pkwy,32830,28.3569869189,-81.5914710466,4.0,436,1,"Desserts, Restaurants, Food, African, Salad, American (New)",'free',"{'garage': False, 'street': False, 'validated': False, 'lot': True, 'valet': False}",True,True,True,3.0,'full_bar',False,'casual',False
8376,5Ler8jIXPiQmNx3suyUjBA,Wendy's,3020 West Sand Lake Road,32819,28.4496307,-81.4247952,3.0,13,1,"Hot Dogs, Burgers, Fast Food, Restaurants",'free',"{'garage': False, 'street': False, 'validated': False, 'lot': True, 'valet': False}",True,False,True,1.0,,True,'casual',True
8378,iZ5aarlpBZlW64xdS1Ck1A,Belle Isle Bayou,5180 S Conway Rd,32812,28.4807588009,-81.3321949634,3.0,50,0,"Cajun/Creole, Food, Restaurants",u'free',"{'garage': False, 'street': False, 'validated': False, 'lot': True, 'valet': False}",True,True,True,2.0,u'full_bar',True,u'casual',True
8471,ZP0ciPjCVNz4aRPmxvCVDQ,Sweet Tomatoes,4678 E Colonial Dr,32803,28.552213,-81.327419,3.5,165,0,"Buffets, Vegetarian, Restaurants, Salad, Soup",u'no',"{'garage': False, 'street': False, 'validated': False, 'lot': True, 'valet': False}",True,False,True,2.0,'none',True,'casual',False
8502,EaZlyWhT0MawKf6DOyh2HA,Jersey Mike's Subs,9202 Jeff Fuqua Blvd,32827,28.43122864,-81.30757904,3.0,26,1,"Fast Food, Delis, Sandwiches, Restaurants",u'no',"{'garage': False, 'street': False, 'validated': False, 'lot': False, 'valet': False}",True,False,True,2.0,'none',True,'casual',True
8525,fdPVA0QmidV1KxO-c_CY8Q,Camila's Restaurant,5458 International Dr,32819,28.4615245,-81.4531757,3.5,107,1,"Restaurants, Brazilian",'free',"{'garage': False, 'street': False, 'validated': False, 'lot': None, 'valet': False}",True,False,True,2.0,'full_bar',True,u'casual',True
8566,nOBDayqXRcUIGAIjEBXnXQ,Keke's Breakfast Cafe,"2433 S Hiawassee Rd, Ste 130",32835,28.5153043,-81.4839594,4.0,93,1,"American (Traditional), Breakfast & Brunch, Restaurants",'no',"{'garage': None, 'street': False, 'validated': False, 'lot': None, 'valet': False}",True,False,True,2.0,'none',True,'casual',True
8626,5JT7wa6_RtDTIAu_cA4XPA,Dunkin',9898 International Dr,32819,28.4241627,-81.4614025,2.0,35,1,"Sandwiches, Food, Coffee & Tea, Fast Food, Cafes, Ice Cream & Frozen Yogurt, Restaurants, Donuts",'free',"{'garage': False, 'street': False, 'validated': False, 'lot': False, 'valet': False}",True,False,,1.0,,True,,True
8694,uC6o9LwG3ejw4RTJjMtFVg,Peach Valley Cafè,5072 Dr Philips Blvd,32819,28.4919971,-81.4918124,4.0,296,0,"Comfort Food, Diners, Breakfast & Brunch, American (Traditional), Cafes, Automotive, Restaurants",'free',"{'garage': False, 'street': False, 'validated': False, 'lot': True, 'valet': False}",True,False,True,2.0,u'beer_and_wine',True,u'casual',False
8786,RdHZAcsilwT61oxFtkZYCw,Pizza Hut,12195 S Apopka Vineland Rd,32836,28.3879785404,-81.5057661834,3.0,32,1,"Chicken Wings, Pizza, Food, Food Delivery Services, Italian, Restaurants",,None,True,False,True,1.0,,True,,True
8809,SwafLjsIK8X4F6md2n6PRw,Waldorf Astoria,14200 Bonnet Creek Resort Ln,32821,28.3536503093,-81.5343441506,4.0,328,1,"Restaurants, Breakfast & Brunch, Hotels & Travel, Event Planning & Services, Brasseries, Hotels",'free',"{'garage': False, 'street': False, 'validated': False, 'lot': False, 'valet': True}",True,True,True,4.0,u'full_bar',True,u'dressy',True
8821,ooNOrdHdhmhS7guiIpDDuA,Another Broken Egg Cafe,"6324 S Semoran Blvd, Ste 1001",32822,28.4720491,-81.3107177,4.5,8,1,"American (Traditional), Restaurants, Breakfast & Brunch, Cafes",,,,,,2.0,,,,True
8843,mSo-QZ-soa01QzowFHS__Q,McDonald's,451 S Goldenrod Rd,32822,28.537365445,-81.2851823075,1.5,19,1,"Food, Restaurants, Coffee & Tea, Burgers, Fast Food",'free',,True,False,True,1.0,'none',True,'casual',True
8844,S0QEoRla89uZyI1BCkqtxw,Valkyrie Doughnuts,"12226 Corporate Blvd, Ste 160",32817,28.6069310793,-81.209671868,4.0,272,1,"Ice Cream & Frozen Yogurt, Vegan, Restaurants, Food, Donuts, Bakeries",u'no',"{'garage': False, 'street': False, 'validated': False, 'lot': True, 'valet': False}",True,False,False,2.0,u'none',None,u'casual',True
8852,uJYsKvT9lg2bos-4t5j34w,Jax 5th Ave Deli & Ale House,3400 Edgewater Dr,32804,28.5757785543,-81.3956451416,3.5,27,0,"Nightlife, Sports Bars, Delis, Bars, Restaurants",u'no',"{'garage': False, 'street': False, 'validated': False, 'lot': True, 'valet': False}",True,False,True,1.0,u'full_bar',True,'casual',False
8914,dmVQtqiGIJQdGuOVzh39Uw,Jamaican Cuisine Jerk Spot,5722 Old Cheney Hwy,32807,28.5616757,-81.3096543,4.0,7,0,"Vegan, Food, Restaurants, Caribbean, Food Delivery Services",,"{'garage': False, 'street': False, 'validated': False, 'lot': False, 'valet': False}",True,False,False,1.0,,,u'casual',True
8963,-ESlCPkuHtl0xlCKQWhJQQ,Sabai Sabai Thai Cafe,1672 N Goldenrod Rd,32807,28.5703525,-81.2862295,3.0,5,0,"Thai, Restaurants",,"{'garage': False, 'street': False, 'validated': False, 'lot': False, 'valet': False}",True,,True,1.0,u'none',True,u'casual',
9011,5SrDt_YHz29CIaKVp9_9yQ,Colombian Bakery,"14650 Gatorland Dr, Unit 6",32837,28.353271352,-81.4049939811,4.5,12,1,"Bakeries, Restaurants, Latin American, Cafes, Colombian, Food",'no',"{'garage': False, 'street': False, 'validated': False, 'lot': True, 'valet': False}",True,False,False,1.0,u'none',True,'casual',True
9024,k4zJfURHmAWRMECfGS5fxQ,Sushi Katana,"4192 Conroy Rd, Ste 103",32839,28.488471,-81.429614,4.5,607,1,"Restaurants, Sushi Bars",u'no',"{'garage': False, 'street': False, 'validated': False, 'lot': True, 'valet': False}",True,True,True,2.0,u'beer_and_wine',True,'casual',None
9069,uQa8d6ZGQu5Hng9NxXs3mg,Winter Park Biscuit Co.,3201 Corrine Dr,32803,28.568361427,-81.3437672436,4.5,28,1,"Vegan, Restaurants, Desserts, Food, Pop-Up Restaurants, American (Traditional)",,,,,,2.0,,,,
9142,F7tj9dFlb32gtuukk1E32g,Burger King,2892 South Orange Ave,32806,28.5096447,-81.3766741,1.5,38,1,"Fast Food, Restaurants, Burgers",,"{'garage': False, 'street': False, 'validated': False, 'lot': False, 'valet': False}",True,False,True,1.0,'none',True,'casual',True
9236,1fOuiCzrduZUc-RoPgzpqg,Friendly Confines,4757 S Orange Ave,32806,28.4941679,-81.3747182,3.5,68,0,"Chicken Wings, Burgers, Salad, Restaurants",'free',"{'garage': False, 'street': False, 'validated': False, 'lot': False, 'valet': False}",True,False,True,2.0,'full_bar',True,'casual',False
9281,AnoUKbQo87YYDX9t4TB-TQ,Subway,"2394 Oak Ridge Rd, Ste 2394",32809,28.4716107,-81.4112079,2.5,5,0,"Restaurants, Fast Food, Sandwiches",,"{'garage': False, 'street': None, 'validated': False, 'lot': None, 'valet': False}",True,False,True,1.0,u'none',True,u'casual',True
9313,Si__hOC86UBaG1-JvB-N0Q,Zeytin Turkish Cuisine,4439 Edgewater Dr,32804,28.597897,-81.3999748,5.0,134,1,"Mediterranean, Turkish, Restaurants, Vegetarian, Halal",u'free',"{'garage': False, 'street': False, 'validated': False, 'lot': True, 'valet': False}",True,False,True,2.0,u'beer_and_wine',True,'casual',True
9419,4UdN4CrCNjWjEpNUR3aSOw,Smokey Bones Bar & Fire Grill,3400 E Colonial Dr,32803,28.5529522,-81.3407849,3.5,210,1,"Restaurants, Bars, Barbeque, Nightlife, Burgers, Sports Bars, American (New), American (Traditional), Chicken Wings",u'free',"{'garage': False, 'street': False, 'validated': False, 'lot': True, 'valet': False}",True,False,True,2.0,u'full_bar',True,'casual',True
9435,EaV9X0hpWP7YYO1Qth4uzg,Subway,4078 Town Center Blvd,32837,28.36150941,-81.4253287529,2.5,15,1,"Restaurants, Sandwiches, Fast Food",,"{'garage': False, 'street': False, 'validated': False, 'lot': True, 'valet': False}",True,False,True,1.0,u'none',True,u'casual',True
9438,mUZhHf68AgwgmeQWs6bu5w,Fonda El Criollito Restaurant,4701 S Semoran Blvd,32822,28.4948323,-81.309124,3.0,16,1,"Latin American, Restaurants",u'no',"{'garage': False, 'street': False, 'validated': False, 'lot': True, 'valet': False}",True,True,True,3.0,u'none',True,'casual',True
9451,XkkM3-jisNT7CZiXty-c7A,Gringos Locos,400 W Church St,32801,28.5389544,-81.3842762,2.5,6,1,"Tex-Mex, Restaurants, Mexican",,,,,,1.0,,,,
9512,MHJxve6Y76BcXCtJ7rS-BA,Sus Hi Eatstation,1830 E Colonial Dr,32803,28.5528706,-81.357687,4.0,119,1,"Japanese, Restaurants, Asian Fusion, Sushi Bars",u'no',"{'garage': False, 'street': True, 'validated': False, 'lot': True, 'valet': False}",True,False,True,1.0,u'beer_and_wine',True,u'casual',True
9537,RhaFmohMt65bJxOa_54Asg,El Rinconcito Restaurant & Bar,5600 Butler National Dr,32812,28.4653063646,-81.3106422221,3.5,45,1,"Caribbean, Restaurants, Nightlife, Bars, Cuban, Latin American",'no',"{'garage': False, 'street': False, 'validated': None, 'lot': True, 'valet': False}",True,False,True,1.0,'beer_and_wine',True,,True
9541,JzuiySs1YZON_71TqAWIKQ,Toasted - UCF Area,11551 University Blvd,32817,28.598317,-81.219392,4.0,91,1,"Salad, Barbeque, Damage Restoration, Restaurants, Home Services, Burgers, Vegan, Sandwiches",'no',"{'garage': False, 'street': None, 'validated': False, 'lot': None, 'valet': False}",True,False,True,1.0,u'none',True,'casual',True
9794,_JlTf8X3R1v3igOYthZdkQ,Cooper's Hawk Winery & Restaurant - Waterford Lakes,529 N Alafaya Trl,32828,28.554734,-81.201775,4.5,729,1,"Wineries, Restaurants, Nightlife, American (Traditional), Food, Arts & Entertainment, Burgers, Wine Tasting Room, Bars, Wine Bars, American (New), Sandwiches",'free',"{'garage': False, 'street': False, 'validated': False, 'lot': True, 'valet': False}",True,True,True,2.0,'full_bar',True,'casual',True
9880,ho0rwUdiR615Tk1FAb5FrQ,Chipotle Mexican Grill,12648 S Orange Blossom Trl,32837,28.3812840345,-81.4050936819,2.5,48,1,"Fast Food, Mexican, Restaurants",'no',"{'garage': False, 'street': None, 'validated': False, 'lot': True, 'valet': False}",True,False,True,1.0,'none',True,'casual',True
9918,deTlQzwpIRfgmAuDa0841A,Tokyo Steakhouse & Sushi Bar,6481 S Chickasaw Trl,32829,28.4704778535,-81.2665775309,3.5,156,1,"Japanese, Restaurants, Sushi Bars",u'no',"{'garage': False, 'street': False, 'validated': False, 'lot': True, 'valet': False}",True,True,True,2.0,u'beer_and_wine',True,u'casual',False
9970,1RKjU_2GNn_3GpCMThCqGQ,Mikado,8701 World Center Dr,32821,28.3609288218,-81.5113628532,3.5,68,1,"Restaurants, Steakhouses, Sushi Bars, Japanese",'no',"{'garage': False, 'street': False, 'validated': False, 'lot': False, 'valet': False}",True,True,True,3.0,u'full_bar',False,'casual',False
9971,JdIO0SZKGZPonTuZH8mDXQ,Hyatt Regency Orlando,9801 International Dr,32819,28.4278023064,-81.4685457427,4.0,529,1,"Venues & Event Spaces, Hotels, Diners, Hotels & Travel, Restaurants, Event Planning & Services",u'free',"{'garage': False, 'street': False, 'validated': False, 'lot': False, 'valet': True}",True,True,True,3.0,u'full_bar',True,u'dressy',True
10089,qsQ4hdS8iVIKzH9OdCjGQQ,Mama Nems,"805 S Kirkman Rd, Ste 106",32811,28.531769,-81.458473,3.0,41,0,"Soul Food, Restaurants, Southern",u'no',"{'garage': False, 'street': False, 'validated': False, 'lot': True, 'valet': False}",True,False,True,2.0,u'none',True,u'casual',False
10125,AaW5qvILHRqQPLTY6uBniQ,Wawa,2500 Silver Star Rd,32804,28.5772841,-81.4150204,4.0,35,1,"Restaurants, Food, Gas Stations, Convenience Stores, Automotive, Sandwiches",'no',"{'garage': False, 'street': False, 'validated': False, 'lot': True, 'valet': False}",True,False,True,1.0,u'beer_and_wine',True,u'casual',True
10135,PVVb8gJODKOMO7nB_q9kMg,Mecatos Bakery & Café,"20 N Orange Ave, Ste 102A",32801,28.542840516,-81.3792076,4.5,16,1,"Coffee & Tea, Breakfast & Brunch, Cafes, Desserts, Food, Restaurants, Bakeries",,,True,,,1.0,,True,,True
10261,36RWgLo8KbZSdYrtjbaSPw,Boston Market,4201 E Colonial Dr,32803,28.5539422,-81.3331711292,3.0,31,1,"Restaurants, American (Traditional), Comfort Food, Sandwiches, Chicken Shop, Event Planning & Services, Caterers",u'no',"{'garage': False, 'street': False, 'validated': False, 'lot': False, 'valet': False}",True,False,True,1.0,u'none',True,u'casual',True
10340,ryvyyUBOdIsCYXsBc18QJg,Suki Hanna,4060 Town Center Blvd,32837,28.3614444367,-81.4250873271,3.5,260,1,"Restaurants, Sushi Bars, Japanese",u'free',"{'garage': False, 'street': False, 'validated': False, 'lot': True, 'valet': False}",True,True,True,2.0,u'beer_and_wine',True,u'casual',True
10378,kBBlPrpUA4oniJ6uaggh8g,Chili's,11942 Narcoossee Rd,32832,28.3914907,-81.2450425,2.5,84,1,"Nightlife, American (Traditional), Restaurants, Tex-Mex, Bars",u'no',"{'garage': None, 'street': None, 'validated': False, 'lot': True, 'valet': False}",True,False,True,2.0,'full_bar',True,'casual',True
10493,xL3yZ_KXMr9J35DgsZqUug,Winnie Palmer Hospital Cafeteria,"85 W Miller St, Fl 1",32806,28.5242930202,-81.3788772965,4.5,14,1,"Cafeteria, Restaurants, Salad",'free',"{'garage': False, 'street': False, 'validated': False, 'lot': False, 'valet': False}",True,False,True,1.0,'none',True,'casual',False
10507,pjxshIPvWrmMvpcKsZUoZw,Broadway Ristorante & Pizzeria,12279 University Blvd,32817,28.5962786229,-81.2104225159,3.0,9,0,"Pizza, Italian, Restaurants",u'free',"{'garage': False, 'street': False, 'validated': False, 'lot': True, 'valet': False}",True,False,True,2.0,u'full_bar',True,,True
10582,GDs0ymtRPWWHlUMBfNT5yg,Oh! Que Bueno Restaurant Grill and Bar,1125 S Semoran Blvd,32807,28.529007,-81.309886,4.0,284,1,"Latin American, Sports Bars, Bars, Restaurants, Colombian, Nightlife",u'no',"{'garage': False, 'street': False, 'validated': False, 'lot': True, 'valet': False}",True,False,True,2.0,u'full_bar',True,u'casual',True
10606,TU-MYM548DAVweH8Xa0OSA,Earls Kitchen + Bar,"Mall At Millenia, 4200 Conroy Rd, Unit H246",32839,28.4867266936,-81.4317177423,4.0,741,1,"Nightlife, Cocktail Bars, Restaurants, American (New), Bars",'free',"{'garage': False, 'street': False, 'validated': False, 'lot': True, 'valet': False}",True,True,True,2.0,u'full_bar',True,'casual',True
10680,bn_WZFGsJzNMPe-y_HTSKQ,The Vineyard,4848 S Apopka-Vineland Rd,32819,28.491336,-81.5103339956,4.0,15,0,"Restaurants, Bars, Nightlife, Tapas/Small Plates, Arts & Entertainment, Wine Bars, Music Venues",u'free',"{'garage': True, 'street': False, 'validated': False, 'lot': False, 'valet': False}",True,False,True,2.0,u'beer_and_wine',False,'casual',False
10830,G5F2Y035_mVsFr4lEjp7uw,Shiso Sushi,13025 S Orange Blossom Trl,32837,28.3766722264,-81.4029509648,3.5,116,1,"Sushi Bars, Japanese, Restaurants, Seafood",u'free',"{'garage': False, 'street': False, 'validated': False, 'lot': False, 'valet': False}",True,True,True,2.0,u'beer_and_wine',True,u'casual',True
11008,xMb-WRReCrzYFUsechldGg,Burger King,16884 E Colonial Dr,32820,28.5603392,-81.1307899,1.0,17,1,"Restaurants, Fast Food, Burgers, Hot Dogs",,,True,False,False,1.0,,True,'casual',True
11077,aTuaOslHbIM8mBeOjpiv1A,Delights of Benezit,2120 Edgewater Dr,32804,28.5708792,-81.3895393,3.5,11,0,"Food, Bakeries, Desserts, Restaurants, French",u'free',"{'garage': False, 'street': True, 'validated': False, 'lot': False, 'valet': False}",True,True,True,1.0,u'beer_and_wine',True,u'casual',False
11164,nss7KgkDYcX8vxBXFtdizw,Sbarro,4200 Conroy Rd,32839,28.4855369,-81.4315048,2.0,9,1,"Restaurants, Italian, Pizza",,"{'garage': False, 'street': False, 'validated': False, 'lot': False, 'valet': False}",,,,1.0,,True,,True
11217,lqpvUtcRoDY04z4VMrBTKA,Taka-Takas Deli,971 W Fairbanks Ave,32804,28.5967729,-81.3933955,4.5,7,0,"Latin American, Cuban, Food, Coffee & Tea, Grocery, Restaurants, Convenience Stores, Venezuelan",,,True,False,True,1.0,,True,'casual',False
11267,v7uGWcBqXFIre0U64RERug,Hungry Howie's Pizza & Subs,3424 Edgewater Dr,32804,28.58239,-81.390485,2.5,7,0,"Sandwiches, Restaurants, Pizza",u'no',"{'garage': False, 'street': False, 'validated': False, 'lot': False, 'valet': False}",True,False,True,1.0,u'none',True,u'casual',True
11341,El3zlJQIWiNa8WtCP1C01g,Kalbi Hau5,,32835,28.5107872,-81.4828198,3.5,15,1,"Food Trucks, Food, Barbeque, Restaurants, Asian Fusion, Street Vendors",,"{'garage': False, 'street': True, 'validated': False, 'lot': False, 'valet': False}",True,False,,1.0,,,,False
11377,uNoxD5j0-aGar6-Pmzwa7w,Taco Bell,12555 State Rd. 535,32836,28.381670067,-81.5036759489,2.5,75,1,"Restaurants, Fast Food, Breakfast & Brunch, Tacos, Mexican, Tex-Mex",'free',"{'garage': False, 'street': False, 'validated': None, 'lot': True, 'valet': False}",True,False,True,1.0,'none',True,u'casual',True
11468,QiAruM_vTZIOAt8kekfYtA,The Vineyard Grill,"Ritz-Carlton Orlando Grande Lakes, 4012 Central Florida Pkwy",32837,28.405237,-81.42902,3.5,32,0,"Steakhouses, Restaurants",,,True,True,True,3.0,u'full_bar',False,u'dressy',False
11521,yIdSy5-KxI2IOYnVvtdtyg,Panaderia Y Taqueria Casas,1710 W Oak Ridge Rd,32809,28.4721251847,-81.4017247036,4.5,24,1,"Restaurants, Mexican",'no',"{'garage': False, 'street': False, 'validated': False, 'lot': True, 'valet': False}",True,False,True,1.0,u'none',True,'casual',False
11555,ZRXkJWgGP54MRpbUZabCnw,Skyebird,3201 Corrine Dr,32803,28.5683585,-81.3437659,4.5,122,1,"Live/Raw Food, Juice Bars & Smoothies, Vegan, Restaurants, Farmers Market, Food, Salad",u'free',"{'garage': False, 'street': True, 'validated': False, 'lot': True, 'valet': False}",True,False,True,1.0,u'none',True,u'casual',False
11572,tlb4-J-FHUgbRJusYLPfSA,Eat N Wash,1723 S Rio Grande Ave,32805,28.522985,-81.400961,4.5,29,1,"Southern, Restaurants, Seafood, Soul Food",'no',"{'garage': False, 'street': False, 'validated': False, 'lot': True, 'valet': False}",True,False,True,2.0,'none',True,'casual',True
11581,teRhnzxmGkteQp4VCzh7Cg,Chick-fil-A,2885 S Orange Ave,32806,28.5102068,-81.3757005,4.0,64,1,"Restaurants, Caterers, Chicken Wings, Event Planning & Services, Gluten-Free, Salad, American (Traditional), Chicken Shop, Fast Food",u'free',"{'garage': False, 'street': False, 'validated': False, 'lot': True, 'valet': False}",True,False,True,1.0,u'none',True,u'casual',True
11637,1sdaEBFjucKOHIJ7SSs1BQ,The Neighborhood Eatery,231 N Magnolia Ave,32801,28.5452278,-81.3773349,4.5,124,1,"Restaurants, American (New), Korean",'free',"{'garage': None, 'street': True, 'validated': False, 'lot': False, 'valet': False}",True,False,True,1.0,'none',True,'casual',True
11704,OrvPhOLNgL25ubxmqyQIgg,Checkers,6371 W Colonial Dr,32818,28.5525484,-81.4690751,1.0,11,1,"Fast Food, Burgers, Restaurants",'no',"{'garage': False, 'street': False, 'validated': False, 'lot': False, 'valet': False}",True,True,False,1.0,,True,'casual',True
11804,oClSNphAnz2l6S4F5MGv3g,Atilla's Bar & Grill Turkish Kitchen,1326 N Mills Ave,32803,28.563105,-81.364789,3.5,45,0,"Steakhouses, Nightlife, Turkish, Restaurants, Mediterranean, American (Traditional), Bars",,"{'garage': False, 'street': False, 'validated': False, 'lot': True, 'valet': False}",True,True,True,2.0,u'beer_and_wine',True,u'casual',True
11841,bsFTjpkdyvzaqnMaVgoETw,Frank's Bistro,4642 S Kirkman Rd,32811,28.4946646,-81.4591049,4.5,10,0,"American (New), Restaurants",,"{'garage': False, 'street': False, 'validated': False, 'lot': False, 'valet': False}",True,False,True,2.0,,True,u'casual',False
11850,uhXUJUYf2oFbH3DBnCgzrQ,"Made in Italy, Kissimmee",215 Broadway,34741,28.2939521,-81.4061333,4.5,42,0,"Pizza, Restaurants, Italian",u'no',"{'garage': False, 'street': True, 'validated': False, 'lot': True, 'valet': False}",True,True,True,2.0,'beer_and_wine',True,'casual',None
11909,wmi9PIUyYE59qWHrvJ5Wiw,Sebastian's Restaurant & Pizza Bar,5576 International Dr,32819,28.4620155,-81.4554997,4.0,6,0,"Restaurants, Specialty Food, Food, Italian, Pizza",u'free',"{'garage': False, 'street': False, 'validated': False, 'lot': True, 'valet': False}",True,True,True,2.0,u'beer_and_wine',True,u'casual',False
12005,p5Iht0C9YKpYR63uVQ407A,Brazil 24 Hour,5648 International Dr,32819,28.4622109,-81.457731,3.5,18,0,"Brazilian, Restaurants",,"{'garage': False, 'street': False, 'validated': False, 'lot': True, 'valet': False}",True,True,True,2.0,u'full_bar',,u'casual',
12010,cTvd8p0R3qgmzobsSIY-cQ,Taverna Opa Orlando,9101 International Dr,32819,28.4321861925,-81.4703474541,4.0,885,1,"Greek, Mediterranean, Restaurants, Seafood",u'free',"{'garage': True, 'street': False, 'validated': True, 'lot': False, 'valet': False}",True,True,True,2.0,'full_bar',True,u'casual',True
12033,9pqtIAm33b40yAlsCHEd-A,Junior Colombian Burger - South Kirkman Road,"5389 S Kirkman Rd, Ste 105",32819,28.4847121,-81.4581959,4.0,317,1,"American (Traditional), Burgers, Restaurants, Fast Food",u'no',"{'garage': False, 'street': False, 'validated': False, 'lot': True, 'valet': False}",True,False,False,1.0,u'none',True,u'casual',True
12096,rKjmHdZwwKp3bhW2NDS8vw,USTA National Campus,10000 Usta Blvd,32827,28.4002913892,-81.2791001045,4.0,16,1,"Tennis, Sporting Goods, Sports Wear, Fashion, Shopping, Active Life, Restaurants",u'free',None,True,True,,,u'beer_and_wine',True,,False
12112,NIeEhM3gyo-Xp0UO07kU1g,Rice & Company,3120 S Kirkman Rd,32811,28.5100983,-81.4598055,2.0,6,0,"Japanese, Chinese, Restaurants",,"{'garage': False, 'street': False, 'validated': False, 'lot': False, 'valet': False}",True,False,False,2.0,u'beer_and_wine',True,u'casual',True
12118,8NB62rqOWHy3zDck4cCBhQ,A Land Remembered,9939 Universal Blvd,32819,28.4270639325,-81.4346898043,4.5,193,1,"Italian, Steakhouses, Restaurants",'free',"{'garage': False, 'street': False, 'validated': True, 'lot': False, 'valet': True}",True,True,True,3.0,u'full_bar',False,u'dressy',False
12131,uKiABo_fKErKRBNx_DSLwA,Palacio Chino,13898 Landstar Blvd,32824,28.3622536,-81.3667691,2.5,26,1,"Chinese, Restaurants",,"{'garage': False, 'street': False, 'validated': False, 'lot': False, 'valet': False}",True,False,True,1.0,u'none',True,u'casual',True
12140,O1GJl_z8lSsnQLvwjpZLvg,Juice'd,12 N Summerlin Ave,32801,28.5428798,-81.3686181,4.0,97,0,"Acai Bowls, Juice Bars & Smoothies, Food, Restaurants, Vegetarian",u'free',"{'garage': True, 'street': True, 'validated': False, 'lot': False, 'valet': False}",True,False,True,2.0,'none',True,'casual',None
12150,Rm9NA7VXxnV7XmWpdIHyPg,Phoresh,"2751 S Chickasaw Trl, Ste 107",32829,28.508679,-81.2682728,5.0,43,1,"Restaurants, Vietnamese, Noodles",u'free',"{'garage': False, 'street': None, 'validated': False, 'lot': True, 'valet': False}",True,False,,1.0,u'none',True,,True
12240,PlQpjecKB9iq_Y48kRltfQ,Orlando Kosher On Wheels,5425 International Dr,32819,28.463306,-81.453384,4.0,5,1,"Food Trucks, Ethnic Food, Restaurants, Kosher, Middle Eastern, Food, Specialty Food",u'free',None,True,True,True,2.0,u'none',True,u'casual',True
12296,q4rhpr1WZyKRPD2pnxYVOw,Tony Roma's: Fire Grill & Lounge,7015 S Semoran Blvd,32822,28.462109,-81.308846,3.0,49,0,"Steakhouses, American (Traditional), Restaurants",'free',"{'garage': False, 'street': False, 'validated': False, 'lot': True, 'valet': False}",True,True,True,2.0,u'full_bar',True,u'casual',False
12406,BqKM8y3E9aFdxweD1_bwFA,Mr Gyros Wings & Grills,2252 S Kirkman Rd,32811,28.5169714893,-81.4619340865,4.0,15,1,"American (Traditional), Sandwiches, Restaurants, Cheesesteaks, Chicken Wings",'free',"{'garage': False, 'street': False, 'validated': False, 'lot': False, 'valet': False}",True,False,True,1.0,u'none',True,u'casual',False
12448,hOTF809grHwsqNY0G-PxhQ,Cracker Barrel Old Country Store,6699 S Semoran Blvd,32822,28.4663987,-81.308952,4.0,239,1,"Event Planning & Services, Comfort Food, Caterers, Breakfast & Brunch, Southern, Restaurants, American (Traditional)",u'no',"{'garage': False, 'street': False, 'validated': False, 'lot': True, 'valet': False}",True,False,True,2.0,u'none',True,'casual',True
12552,C3G-i7vmbcGxV482QvUAeA,Mr. Gyros,3725 S Orange Blossom Trl,32839,28.5048221,-81.396584,4.5,46,1,"Desserts, Salad, Greek, Restaurants, Food, Chicken Wings",u'no',"{'garage': False, 'street': False, 'validated': False, 'lot': True, 'valet': False}",True,False,False,1.0,u'none',True,u'casual',True
12577,D6l7gitv3ivmeEZSqSAjJg,Jade Bistro,2425 Edgewater Dr,32804,28.5731831,-81.3893249,3.5,65,0,"Sushi Bars, Restaurants, Chinese, Asian Fusion",'no',"{'garage': False, 'street': True, 'validated': False, 'lot': False, 'valet': False}",True,True,True,2.0,u'beer_and_wine',True,u'casual',True
12581,JlT4Va7UD6kENkvuZ_OJqQ,McDonald's,12300 Lake Underhill Rd,32828,28.546257,-81.2026441097,2.0,45,1,"Food, Fast Food, Burgers, Restaurants, Coffee & Tea",'free',"{'garage': False, 'street': None, 'validated': False, 'lot': True, 'valet': False}",True,False,True,1.0,'none',True,'casual',True
12611,17qn2zGImFOYQqMc7bGbBQ,Curbside Chef,,32868,28.5833617,-81.4761599,4.5,23,1,"Food, Food Trucks, Food Stands, Street Vendors, Dim Sum, Real Estate, Home Services, Chinese, Caterers, Kitchen Incubators, Restaurants, Asian Fusion, Specialty Food, Event Planning & Services",u'no',"{'garage': False, 'street': True, 'validated': False, 'lot': False, 'valet': False}",True,False,True,2.0,u'none',True,u'casual',False
12640,SArgfN2Q1YGoVG8A16tiRQ,Story Book Dining at Artist Point with Snow White,901 Timberline Dr,32830,28.409557,-81.5729199,4.0,225,1,"Steakhouses, Restaurants, Seafood, American (New)",'free',"{'garage': False, 'street': False, 'validated': False, 'lot': True, 'valet': False}",True,True,True,3.0,'full_bar',False,'casual',False
12721,oInKMtOAHotvkSWCPAjP_g,Logan's Bistro,802 Virginia Dr,32803,28.5638508,-81.3671725,4.0,22,0,"American (New), Restaurants, Tapas/Small Plates",,"{'garage': False, 'street': False, 'validated': False, 'lot': True, 'valet': False}",True,True,True,2.0,u'full_bar',True,u'casual',False
12739,9QkbehfbU483SOTQjdLdLQ,Graffiti Burger Bar,54 W Chruch St,32801,28.5402147286,-81.3804279664,2.5,64,0,"Salad, Nightlife, Sports Bars, Restaurants, Bars, Burgers, American (Traditional)",'no',"{'garage': False, 'street': False, 'validated': False, 'lot': False, 'valet': False}",True,False,True,2.0,'full_bar',True,'casual',False
12765,ei_mjOR61Xw6pLWzZGCywQ,Taco Rio Mexican Kitchen,707 S Semoran Blvd,32807,28.534185,-81.309548,4.5,9,1,"Restaurants, Mexican, Latin American",u'no',"{'garage': True, 'street': True, 'validated': False, 'lot': False, 'valet': False}",True,True,,,u'beer_and_wine',True,,True
12813,NILspEbvimiYe3I9NQIMUg,Burger King,12491 Apopka Vineland Rd,32836,28.3841766,-81.5052488,1.5,39,1,"Fast Food, Restaurants, Burgers",u'no',"{'garage': False, 'street': False, 'validated': False, 'lot': False, 'valet': False}",True,False,True,1.0,u'none',True,'casual',True
12917,7XLHH0a5B26lldstphoOLA,Wing Zone,"12090 Collegiate Way, Ste 3",32817,28.5965609,-81.2108106,2.5,26,0,"Fast Food, Sandwiches, American (New), Burgers, Restaurants, Chicken Wings",u'no',"{'garage': False, 'street': False, 'validated': False, 'lot': True, 'valet': False}",True,False,True,1.0,u'none',True,'casual',True
12935,BnPqMC1l8Wl3vjsBnPDacQ,Espetos Steakhouse,7056 S Kirkman Rd,32819,28.4600514,-81.459406,4.5,18,0,"Brazilian, Steakhouses, Restaurants",'free',"{'garage': False, 'street': False, 'validated': False, 'lot': False, 'valet': False}",True,True,True,3.0,'full_bar',True,'casual',False
13065,oseNPKndpybN2ZfvXzDyWQ,Flippers Pizzeria,11062 International Dr,32821,28.40445782,-81.45698912,3.5,178,1,"Pizza, Restaurants, Sandwiches, Italian",'free',"{'garage': False, 'street': False, 'validated': False, 'lot': True, 'valet': False}",True,False,True,2.0,'beer_and_wine',True,u'casual',True
13081,KC_oDHzfiRfuXPne4PZE_w,Soprano's Ristorante Pizzeria,3990 Curry Ford Rd,32806,28.5242181,-81.3352829,3.0,26,0,"Italian, Restaurants, Pizza",'no',"{'garage': False, 'street': False, 'validated': False, 'lot': True, 'valet': False}",True,False,True,1.0,u'beer_and_wine',True,u'casual',True
13102,GxZSyDO9Zay0DT0-65OZsQ,Wawa,6500 South Semoran Blvd,32822,28.4694344248,-81.3106376177,4.0,73,1,"Restaurants, Automotive, Gas Stations, Coffee & Tea, Convenience Stores, Breakfast & Brunch, Sandwiches, Food",'free',"{'garage': False, 'street': False, 'validated': False, 'lot': True, 'valet': False}",True,False,False,1.0,'beer_and_wine',True,'casual',True
13287,eqxDuCyIIITAsWBrSJrBYg,Chick-fil-A,"9333 Airport Blvd, HMS Host",32827,28.431171,-81.307685,2.5,79,1,"Restaurants, Event Planning & Services, Fast Food, Caterers",'no',"{'garage': True, 'street': False, 'validated': False, 'lot': None, 'valet': False}",True,False,True,1.0,u'none',False,u'casual',False
13302,5O-JNu-fflimpMNHYOew3Q,Paramount Lebanese Kitchen,"11325 University Blvd, Ste 206",32817,28.5982709,-81.2229969,3.5,31,0,"Lebanese, Desserts, Restaurants, Sandwiches, Middle Eastern, Food, Mediterranean",'free',"{'garage': False, 'street': False, 'validated': False, 'lot': True, 'valet': False}",True,False,True,2.0,,True,'casual',False
13357,x8E_lcAuT9SV0OXaDwooFw,Ginza Japanese Steak & Sushi Bar,1101 E Colonial Dr,32803,28.553465,-81.36522,3.0,84,0,"Sushi Bars, Restaurants, Japanese",u'free',"{'garage': False, 'street': True, 'validated': False, 'lot': True, 'valet': False}",True,True,True,2.0,u'full_bar',True,u'casual',False
13380,Hf32W0LKC5lJZ1U0ADIC-w,Chocolate Museum & Cafe,"11701 International Dr, Ste 400",32821,28.3938344,-81.4648889,4.5,403,1,"Museums, Hotels & Travel, Cafes, Candy Stores, Coffee & Tea, Tours, Food, Desserts, Arts & Entertainment, Specialty Food, Restaurants",u'free',"{'garage': False, 'street': False, 'validated': False, 'lot': True, 'valet': False}",True,False,True,2.0,u'beer_and_wine',None,'casual',None
13518,nBNOci6UFJZO8bp9SnQf7A,Krystal,11052 E Colonial Dr,32817,28.5680680212,-81.2230207846,3.5,20,0,"Fast Food, Restaurants, Burgers",'free',"{'garage': None, 'street': None, 'validated': False, 'lot': None, 'valet': False}",True,False,True,1.0,'none',True,'casual',True
13524,AB6k2EBadPoPoVwssTpyrQ,Silva's Market,5920 Metropolis Way,32811,28.5158449,-81.4622481,4.0,34,1,"Grocery, Meat Shops, Restaurants, Butcher, Specialty Food, Brazilian, Food",u'free',"{'garage': False, 'street': False, 'validated': False, 'lot': True, 'valet': False}",True,False,True,2.0,u'beer_and_wine',True,u'casual',None
13594,Ad9NIIOWI-la3a2UM3W9DQ,Guacamole Mexican Grill,"2822 S Alafaya Trl, Ste 195",32828,28.511574,-81.1856239,4.5,119,1,"Mexican, Restaurants",u'free',"{'garage': False, 'street': False, 'validated': False, 'lot': False, 'valet': False}",True,False,True,2.0,u'none',True,,True
13661,pdP1xUjJXQrV8N855TU05A,McDonald's,8175 S John Young Pkwy,32819,28.4468552571,-81.4268445177,2.5,20,1,"Food, Coffee & Tea, Restaurants, Burgers, Fast Food",'free',,True,False,False,1.0,,True,'casual',True
13675,xejHIhIwTO54pA797XCzNg,Mediterranean Gourmet,"1084 Lee Rd, Ste 2",32810,28.6053889,-81.3984043,4.0,75,0,"Mediterranean, Falafel, Fast Food, Restaurants, Vegetarian, Salad, Middle Eastern, Greek, Seafood, Delis, Chicken Wings",u'free',"{'garage': True, 'street': True, 'validated': False, 'lot': True, 'valet': False}",True,True,True,1.0,u'none',True,u'casual',True
13697,F_Y9txiH3XcGz03ExQp3_g,Red Lobster,8003 Golden Sky Ln,32809,28.45008,-81.393477,3.5,47,1,"Restaurants, Seafood, American (Traditional)",'free',"{'garage': True, 'street': True, 'validated': True, 'lot': True, 'valet': True}",True,True,True,2.0,u'full_bar',True,u'casual',True
13777,ScJgJSzj604p26xMOI8s7A,TJ's Seafood Shack,12231 E Colonial Dr,32826,28.5673974638,-81.1951875407,4.0,114,0,"Food, Restaurants, Seafood",'free',"{'garage': False, 'street': False, 'validated': False, 'lot': False, 'valet': False}",True,False,True,2.0,'beer_and_wine',True,'casual',False
13782,_0bhouvrFRc5ZnWF8pcyFw,Olives,165 S Orange Ave,32801,28.5407497,-81.3784394,4.5,49,1,"Vegan, Vegetarian, Halal, Restaurants, Mediterranean, Food, Greek",u'free',"{'garage': True, 'street': True, 'validated': False, 'lot': False, 'valet': False}",True,True,True,,u'none',True,,True
13789,BAXsTp9Z65ULp7LSffUNQg,Chicken Now,8200 Vineland Ave,32821,28.387324,-81.492445,1.5,7,1,"Chicken Wings, Fast Food, Restaurants",,,True,False,True,2.0,,True,'casual',False
13792,J2LR4k_-1hjMW9nL2kza-A,Kahuna Grill,13701 S John Young Pkwy,32837,28.36769,-81.4246749,2.5,8,0,"Caribbean, Restaurants",,"{'garage': False, 'street': False, 'validated': False, 'lot': True, 'valet': False}",True,,True,2.0,u'full_bar',,u'casual',
13811,Wk8cJsd8DSa7Q7FMFRU2Uw,Foodoko,13800 Veterans Way,32827,28.3654745212,-81.2749828706,4.5,10,1,"Sushi Bars, Restaurants, Ramen, Japanese, Asian Fusion",,,True,False,True,2.0,,True,'casual',False
13825,5kyEdY1kv5VsmBtJ_lKRjA,Bar Louie,7015 S Semoran Blvd,32822,28.4620462,-81.3088096,3.5,257,1,"Cocktail Bars, Nightlife, Gastropubs, Bars, American (New), Sports Bars, Restaurants",u'free',"{'garage': False, 'street': False, 'validated': False, 'lot': True, 'valet': False}",True,False,True,2.0,u'full_bar',True,'casual',True
13838,i1gLM9CJAZNxOrb1EIAe3w,Larry's Giant Subs,"9161 Narcoossee Rd, Ste 106B",32827,28.4341070242,-81.2562934437,4.0,62,0,"Restaurants, Sandwiches, Breakfast & Brunch, Salad",'free',"{'garage': False, 'street': False, 'validated': False, 'lot': True, 'valet': False}",True,False,True,1.0,u'none',True,u'casual',False
13869,fM44ZS_KDUZHNK18f3dnsQ,Copper Canyon Grill - Orlando,"9101 International Dr, Ste 1220",32819,28.4324477281,-81.4710491631,4.0,425,0,"Restaurants, Nightlife, Bars, American (New), Steakhouses, Comfort Food, Wine Bars, American (Traditional)",u'free',"{'garage': True, 'street': False, 'validated': True, 'lot': False, 'valet': False}",True,True,True,2.0,'full_bar',True,'casual',False
13897,KvnvR8SXRF1z9xmQHnqIdw,Boteco Restaurant,"5135 International Dr, Ste 12",32819,28.470875,-81.45113,4.0,129,1,"Tapas/Small Plates, Restaurants, Brazilian",u'free',"{'garage': False, 'street': None, 'validated': False, 'lot': None, 'valet': False}",True,True,True,2.0,u'full_bar',True,u'casual',False
13898,vUvMI4xCOOvUK8XkbZNNVw,Kyoto Sushi and Grill,12141 Collegiate Way,32826,28.597388,-81.209527,3.0,147,1,"Sushi Bars, Japanese, Restaurants",u'free',"{'garage': False, 'street': False, 'validated': False, 'lot': True, 'valet': False}",True,True,True,2.0,'beer_and_wine',True,u'casual',False
13915,zVGOwWFwApbt6REC8n6WaQ,California Pizza Kitchen at Millenia Mall,"4200 Conroy Rd, Space 1590",32839,28.485102,-81.4323,4.0,137,1,"Restaurants, Salad, Pizza, American (New), American (Traditional)",'free',"{'garage': False, 'street': False, 'validated': False, 'lot': None, 'valet': False}",True,False,True,2.0,u'full_bar',True,u'casual',True
13919,NUFDEBTFJFi7Jes40FpjBQ,Tortilleria & Restaurant La Mexicana,2417 W Oak Ridge Rd,32809,28.4730368,-81.4109351,3.5,48,1,"Restaurants, Mexican",u'free',"{'garage': False, 'street': False, 'validated': False, 'lot': True, 'valet': False}",True,True,True,1.0,u'full_bar',True,u'casual',None
13939,JE1FcBTBQdaFGAhRapZxcw,Raga Restaurant,7559 W Sand Lake Rd,32819,28.4507014,-81.4862646,3.0,43,0,"Restaurants, Indian, American (New)",u'free',"{'garage': False, 'street': True, 'validated': False, 'lot': False, 'valet': True}",True,True,True,2.0,u'full_bar',True,u'dressy',True
13962,S_raUwJajxiS1g7cEoC9Lw,Fuddruckers,5250 International Dr,32819,28.468246,-81.448234,3.0,134,0,"Restaurants, American (Traditional), Burgers",u'free',"{'garage': False, 'street': False, 'validated': False, 'lot': True, 'valet': False}",True,False,True,2.0,u'beer_and_wine',True,'casual',None
14067,Gj4kp9NxU_TQ8YXggXFUGQ,Chen's New China Buffet,"2845 S Orange Ave, Ste 180",32806,28.5098086,-81.3733203,2.0,9,0,"Chinese, Restaurants",u'no',"{'garage': False, 'street': False, 'validated': False, 'lot': False, 'valet': False}",True,False,True,1.0,u'none',True,u'casual',False
14107,z2SwgsKHiB6t8hhH3crK-w,Red Mountain BBQ,"3020 Lamberton Blvd, Ste 110",32825,28.5093919,-81.2367962,4.0,14,0,"Southern, Restaurants, Barbeque",'free',"{'garage': False, 'street': False, 'validated': False, 'lot': False, 'valet': False}",True,False,True,1.0,'none',True,'casual',False
14181,NBXaP1R4jitMC4LU8mzLIA,Kai Kai Dim Sum & BBQ,2415 E Colonial Dr,32803,28.5539188,-81.3514857,4.0,13,1,"Chinese, Dim Sum, Cantonese, Barbeque, Restaurants",,"{'garage': False, 'street': False, 'validated': False, 'lot': False, 'valet': False}",,,,,,None,,
14195,avhO2gx4ensf6Su6ld9d5g,Olive Garden Italian Restaurant,11882 E Colonial Dr,32826,28.5658551,-81.2052767,3.0,123,1,"Restaurants, Wine Bars, Salad, Bars, Nightlife, Italian, Soup",'free',"{'garage': False, 'street': False, 'validated': False, 'lot': True, 'valet': False}",True,True,True,2.0,u'full_bar',True,u'casual',False
14247,kH_l_WaqeH9aYWT88TpybA,Daruma Sushi and Thai,"12001 Avalon Lake Dr, Ste H",32828,28.51046,-81.15535,3.0,10,0,"Thai, Restaurants, Sushi Bars",,"{'garage': False, 'street': True, 'validated': False, 'lot': False, 'valet': False}",True,False,True,2.0,u'beer_and_wine',True,u'casual',False
14252,yuuQPuWmSUCkMDNq1x29jg,Burger King,2607 Hiawassee Rd,32818,28.5786006,-81.47569,1.0,7,1,"Restaurants, Burgers, Fast Food",u'free',,,False,True,1.0,u'none',True,u'casual',True
14253,Ooyt9VYVbXrNTSz9zmFQnA,Wok & Roll,12410 Lake Underhill Rd,32828,28.5453732,-81.2020727,3.0,24,1,"Chinese, Restaurants",u'no',"{'garage': False, 'street': False, 'validated': False, 'lot': False, 'valet': False}",True,False,True,1.0,u'beer_and_wine',True,u'casual',True
14320,CnVbcdORU1PATe6N0Mdp4A,Panera Bread,227 N Eola Dr,32801,28.5455720265,-81.3697575759,3.0,45,0,"Breakfast & Brunch, Soup, Restaurants, Food, Salad, Bagels, Sandwiches, Bakeries, Delis",u'free',"{'garage': False, 'street': True, 'validated': False, 'lot': False, 'valet': False}",True,False,True,1.0,u'none',True,'casual',False
14322,Zt6rMjV5pz4CQ6Fa4sadNA,Loading Zone Philly Steaks,24 E Washington St,32801,28.543345,-81.3786002,4.5,74,1,"Food, Restaurants, Steakhouses, Cheesesteaks",u'free',"{'garage': True, 'street': None, 'validated': False, 'lot': False, 'valet': False}",True,False,True,,u'beer_and_wine',True,,True
14361,WwLZgm2Yw0n9AEo05sa3tQ,Millenia106,"4104 Millenia Blvd, Ste 106",32839,28.4886825,-81.4299023,4.5,69,0,"Gastropubs, Cocktail Bars, Pizza, Bars, Restaurants, Nightlife, Steakhouses, American (New)",u'free',"{'garage': False, 'street': True, 'validated': False, 'lot': True, 'valet': False}",True,True,True,2.0,u'full_bar',True,'casual',True
14448,6M747U8wDVZcRZHqIYB_iQ,NBC Sports Grill & Brew,6000 Universal Blvd,32819,28.4741230276,-81.4659191172,3.5,917,1,"Bars, Nightlife, American (Traditional), Sports Bars, Restaurants",'free',"{'garage': True, 'street': False, 'validated': False, 'lot': False, 'valet': False}",True,True,True,2.0,'full_bar',False,'casual',False
14452,eBCxwx1t0LLz0wY8Fow8xA,Wawa,8099 Orange Ave,32809,28.4512752,-81.3634867,3.5,5,1,"Restaurants, Food, Gas Stations, Automotive, Sandwiches, Coffee & Tea, Convenience Stores",u'free',"{'garage': None, 'street': None, 'validated': None, 'lot': True, 'valet': False}",True,,,1.0,,True,,True
14493,CZe5WkqWUygxDVepFW_MFw,Bistro CloClo,"7600 Dr Phillips Blvd, Ste 22",32819,28.4527172472,-81.489843941,4.0,71,0,"American (New), Food, Desserts, French, Restaurants, Creperies",u'free',"{'garage': False, 'street': False, 'validated': False, 'lot': True, 'valet': False}",True,True,True,2.0,u'beer_and_wine',True,'casual',False
14495,_L8Kiw3hzUioqLONWUnAGQ,Firehouse Subs,2217 E Colonial Dr,32803,28.5533786,-81.3532467,3.0,30,0,"Fast Food, Restaurants, Sandwiches, Delis",,"{'garage': False, 'street': False, 'validated': False, 'lot': True, 'valet': False}",True,False,False,1.0,'none',True,'casual',True
14517,DSCb1WL29vViFmLFAKXphw,Burger King,7667 International Dr,32819,28.4512844,-81.470319,2.0,37,0,"Restaurants, Fast Food, Hot Dogs, Burgers",'free',"{'garage': False, 'street': False, 'validated': False, 'lot': False, 'valet': False}",True,False,True,1.0,u'none',True,'casual',None
14560,zucGaP41gx-SjFJGrDq9rQ,Pi Pizza,"7756 University Blvd, Ste 104",32817,28.5973801,-81.2805265,4.0,16,0,"Specialty Food, Food, Restaurants, Pizza",u'free',"{'garage': False, 'street': False, 'validated': False, 'lot': False, 'valet': False}",True,False,True,1.0,u'beer_and_wine',True,'casual',True
14592,pMGOQ7AysXjpp8z947ckEQ,The Virgin Olive Market,"Urban ReThink, 625 E Central Blvd",32801,28.5424031,-81.3688845,3.5,5,0,"Sandwiches, Restaurants, Cafes",,"{'garage': False, 'street': False, 'validated': False, 'lot': False, 'valet': False}",,,,1.0,,,,
14635,DDfwAVAzU9rp9bUwlXSyPA,Negril Jamaican Restaurant,6301 Silver Star Rd,32818,28.5780852,-81.4681194,3.5,44,1,"Restaurants, Caribbean, Food",,"{'garage': False, 'street': True, 'validated': False, 'lot': True, 'valet': False}",True,False,False,2.0,u'beer_and_wine',True,'casual',True
